sighting,报道,citizen,officer,纬度,经度,city,nation,city_interpol,has_weapon,has_hat,has_jacket,behavior
1995-09-27,1995-10-13,Caleb Jones,Karen Keller MD,40.11583,67.84222,Jizzax,UZ,Samarkand,False,True,True,tense
1996-09-12,1996-09-18,John Archer,Kelly Barnes,33.37526,74.3092,Rajaori,IN,Kolkata,False,True,True,confessing
2005-10-14,2005-12-12,Shane Taylor,Laura Parks,14.95472,120.89694,Baliuag,PH,Manila,False,False,True,confessing
2014-12-23,2015-01-28,Tyler Wilkins,Nicholas Powell,14.46693,75.92694,Davangere,IN,Kolkata,False,True,True,unhappy
2003-07-05,2003-07-14,Brandon Hernandez,Mackenzie Gilbert,21.34222,71.30633,Kundla,IN,Kolkata,True,True,True,paranoid
1988-08-09,1988-09-24,Mr. Alex Adkins,Jeremy Mason,6.84019,79.87116,Dehiwala-Mount Lavinia,LK,Colombo,False,True,True,out-of-control
2016-06-11,2016-07-14,Brittany Mendoza,Samuel Jackson,12.37169,123.62494,Masbate,PH,Manila,False,True,True,lonely
2003-09-26,2003-11-15,Karen Young,Tanya Conley,15.58552,102.42587,Bua Yai,TH,Bangkok,False,True,True,injured
1990-07-14,1990-07-14,Jason Shelton,Charlene Mccormick,29.21399,78.95693,Kashipur,IN,Kolkata,False,False,True,friendly
2014-01-15,2014-02-12,Miranda Leach,Gerald Green,36.53333,136.61667,Nonoichi,JP,Tokyo,False,True,True,talkative
2001-07-05,2001-08-20,Lisa Harper,Stacey Morris,4.02219,101.02083,Teluk Intan,MY,Kuala Lumpur,False,True,True,oblivious
1987-01-13,1987-02-12,Carl Green,Darrell Crawford,35.06667,135.21667,Sasayama,JP,Tokyo,False,False,True,lonely
1989-05-17,1989-06-13,Sean Ward,Mrs. Amy Munoz PhD,31.39547,34.75699,Rahat,IL,Jerusalem,False,False,True,sad
1985-11-27,1985-11-28,Matthew Livingston,Matthew Brown,10.31672,123.89071,Cebu City,PH,Manila,False,True,True,oblivious
2003-06-29,2003-07-04,Charles Martinez,Kathryn Martin,41.77583,140.73667,Hakodate,JP,Tokyo,False,False,True,happy
2009-01-27,2009-02-15,Timothy Frederick,Jerry Collins,31.96258,73.97117,Naushahra Virkan,PK,Karachi,False,False,True,over-complimenting
2008-06-24,2008-08-10,Justin Jones,Rachel Barnes,33.86419,48.26258,Aleshtar,IR,Tehran,False,False,True,over-complimenting
2002-12-11,2002-12-15,John Wong,Allen Baker,41.29444,69.67639,Parkent,UZ,Tashkent,False,True,True,scared
2018-05-13,2018-06-12,Jacqueline Henry,James Dawson,25.75728,75.37991,Deoli,IN,Kolkata,False,True,True,complaining
1988-07-02,1988-07-28,Cassandra Salazar,Ryan Wilkinson,41.77583,140.73667,Hakodate,JP,Tokyo,False,False,True,happy
2011-06-29,2011-08-26,Jimmy Mendez,Micheal Thomas,6.33444,124.95278,Tupi,PH,Manila,False,True,True,panicking
2006-12-09,2006-12-21,Denise Hill,Jasmine Rowland,-6.48167,106.85417,Cibinong,ID,Jakarta,False,True,True,out-of-control
1990-04-26,1990-05-19,Jennifer Rogers,Michael Tate,55.8736,85.4265,Yashkino,RU,Novokuznetsk,False,True,True,injured
2012-12-16,2013-02-07,Jessica Blackburn,Julia Cannon,55.54028,89.20083,Sharypovo,RU,Krasnoyarsk,True,True,True,worried
2021-04-30,2021-05-06,Patrick Nguyen,Leslie Curtis,16.0438,120.4861,Manaoag,PH,Manila,False,True,True,scared
2004-08-14,2004-08-22,Andrew Ross,Kenneth Barrett,-7.54972,110.71639,Ngemplak,ID,Jakarta,False,False,True,evasive
2021-08-26,2021-08-30,Jessica Gould,Frank Gutierrez,23.02677,113.13148,Foshan,CN,Shanghai,False,True,True,injured
2008-06-09,2008-07-03,Amanda Nguyen,Katelyn Garcia,22.10194,85.37752,Barbil,IN,Kolkata,False,True,True,hostile
2018-02-19,2018-04-16,Stacey Collier,James Anderson,9.82564,78.25795,Tiruppuvanam,IN,Kolkata,False,True,True,out-of-control
1994-08-22,1994-09-27,Briana Nelson,Jeffrey Graves MD,6.95194,121.96361,Recodo,PH,Manila,False,False,True,lonely
1996-12-27,1997-01-24,Wendy Trevino,Melissa Ellis,16.0567,103.65309,Roi Et,TH,Bangkok,False,True,True,hostile
2004-01-29,2004-02-27,Desiree Harper,Sarah Green,40.66482,122.22833,Yingkou,CN,Shanghai,False,False,True,panicking
1999-12-28,2000-01-23,Amanda Pham,Bethany Chen,10.58806,77.24779,Udumalaippettai,IN,Kolkata,True,False,True,lonely
2001-10-23,2001-11-20,Jason Humphrey,Belinda Thompson,32.17629,75.06583,Fazilpur,PK,Karachi,False,False,True,silent
2014-09-17,2014-11-14,Kristi Fox,Melinda Evans,40.78206,72.34424,Andijon,UZ,Tashkent,False,True,False,hostile
2012-10-17,2012-10-24,Stephanie White,Randy Simmons,21.46527,83.97573,Sambalpur,IN,Kolkata,False,True,True,tense
2014-06-19,2014-08-15,Travis Dixon,Robert Baird,40.85158,122.74754,Haicheng,CN,Shanghai,False,True,True,out-of-control
1986-06-17,1986-07-01,Jacqueline Cruz,Kim Dyer,-6.8048,110.8405,Kudus,ID,Jakarta,False,True,True,sad
1986-02-19,1986-03-19,Robin Melton,Laura Oconnor,25.75728,75.37991,Deoli,IN,Kolkata,False,True,True,friendly
1985-07-16,1985-09-01,Denise Fisher,Jennifer Cook,55.54028,89.20083,Sharypovo,RU,Krasnoyarsk,False,True,True,friendly
1990-10-13,1990-11-30,Eric Johnson,Jennifer George,16.06213,76.0586,Hungund,IN,Kolkata,True,True,True,lonely
2006-12-14,2007-02-02,Charlene Haynes,Jeanette Martinez,16.06213,76.0586,Hungund,IN,Kolkata,False,False,True,complaining
1997-07-06,1997-09-01,Robert Perez,Jeremy Mason,36.24624,139.07204,Fujioka,JP,Tokyo,False,False,True,complaining
1991-03-25,1991-04-18,Amber Scott,Elizabeth Cook,25.92493,73.66633,Sojat,IN,Kolkata,False,False,True,injured
2002-01-10,2002-02-27,Nicholas Thornton,Stephanie Brooks,30.81383,75.16878,Moga,IN,Kolkata,False,True,True,worried
1995-11-17,1995-12-18,William Robles,Jeanne Green,6.33444,124.95278,Tupi,PH,Manila,False,True,True,silent
2017-02-22,2017-02-26,Elizabeth Parker,Alison Peterson,10.58806,77.24779,Udumalaippettai,IN,Kolkata,False,False,True,hostile
2007-06-14,2007-06-16,Thomas Winters,Christopher Morrison,55.75556,60.70278,Ozersk,RU,Yekaterinburg,False,True,True,confessing
1986-01-21,1986-02-08,Timothy Goodman,Jennifer Hernandez,21.53889,71.57737,Gariadhar,IN,Kolkata,False,True,True,evasive
2001-06-26,2001-08-01,Brian Graves,Denise Davis,-7.51611,109.05389,Wangon,ID,Jakarta,False,False,True,silent
1998-12-18,1999-01-12,Crystal Davidson,Brandon Miller,18.51957,73.85535,Pune,IN,Kolkata,True,False,True,accusatory
2003-01-26,2003-02-06,Kevin King,Reginald Harvey,26.32293,91.00632,Barpeta,IN,Kolkata,False,True,True,unhappy
2003-01-05,2003-01-07,Justin Flores,Jacqueline Maldonado,41.09822,120.74792,Nanpiao,CN,Shanghai,False,False,True,oblivious
1987-01-22,1987-02-03,Taylor Jones,Angela Johnson,18.18158,76.03889,Osmanabad,IN,Kolkata,False,True,True,hostile
2017-07-02,2017-08-08,Larry Turner,Julia Cannon,23.07492,88.28637,Pandua,IN,Kolkata,False,True,True,unhappy
2010-11-05,2010-11-08,Matthew Gardner,David Murphy,34.86472,117.55417,Zaozhuang,CN,Shanghai,True,True,False,hostile
1985-12-30,1986-02-26,Eric Flowers,Timothy Davis,36.6009,126.665,Hongseong,KR,Seoul,False,False,True,talkative
2014-02-15,2014-04-10,Christopher Lawson,Carrie Boone,13.65805,102.56365,Paoy Paet,KH,Phnom Penh,False,True,True,tense
1986-01-02,1986-02-11,Randy Smith,Brett Wood,53.14657,140.72287,Nikolayevsk-on-Amure,RU,Vladivostok,True,False,True,evasive
1994-07-10,1994-08-13,Jason Simmons,Christopher Ross,24.28859,116.11768,Meizhou,CN,Shanghai,False,False,True,accusatory
1993-09-10,1993-11-02,Jon Stokes,Michael Barron,36.0,139.55722,Okegawa,JP,Tokyo,False,False,True,lonely
2012-05-21,2012-06-09,Susan Jones,Anna Flores,20.88197,85.83334,Bhuban,IN,Kolkata,False,True,True,over-complimenting
2000-07-09,2000-09-02,Shelley Aguirre,Steven Lee,31.28092,74.85849,Patti,IN,Kolkata,False,True,True,worried
1989-11-29,1989-12-22,Ann Hancock,Dean Martinez,3.3285,99.1625,Tebingtinggi,ID,Jakarta,False,False,True,accusatory
1986-03-05,1986-03-09,Desiree Carpenter,Brian Hickman,14.62578,121.12251,Antipolo,PH,Manila,False,True,True,sad
1990-12-16,1991-01-21,Catherine Potter,Kaitlyn Booker,-6.48167,106.85417,Cibinong,ID,Jakarta,False,True,True,silent
2003-07-01,2003-08-28,Sean Massey,Rose Reed,26.32293,91.00632,Barpeta,IN,Kolkata,False,True,True,sad
1999-03-07,1999-03-29,Jeffrey Griffin,Nicole Adams,16.06213,76.0586,Hungund,IN,Kolkata,True,False,True,hostile
2000-11-14,2001-01-09,Sherry Liu,Julia Reynolds,51.78771,56.36091,Saraktash,RU,Yekaterinburg,False,False,True,talkative
2016-04-13,2016-05-28,Luke Parker,Kim Dyer,26.44931,91.61356,Rangia,IN,Kolkata,False,False,True,injured
2020-03-03,2020-04-11,Gabriella Gordon,Steven Lee,23.29549,113.82465,Licheng,CN,Shanghai,False,False,True,scared
1990-11-12,1990-12-24,Jennifer Rodriguez,Jane Hall,-1.26753,116.82887,Balikpapan,ID,Makassar,False,True,True,injured
2000-05-17,2000-06-30,Thomas Oconnell,Brittany Henderson,35.20889,111.73861,Changzhi,CN,Shanghai,False,True,False,scared
1993-08-17,1993-08-17,Phillip Castro,Shawn Huang,33.78333,114.51667,Wacheng,CN,Shanghai,False,False,True,fleeing
2012-03-07,2012-04-28,Holly Kelly,Daniel Brown,51.78771,56.36091,Saraktash,RU,Yekaterinburg,False,True,True,hostile
2002-11-19,2002-12-26,Brittney Hale,Logan Duncan,25.92493,73.66633,Sojat,IN,Kolkata,False,True,True,tense
1993-12-14,1994-01-07,Barbara Fisher,Shelley Richardson,34.08565,74.80555,Srinagar,IN,Kolkata,False,True,True,complaining
2011-09-06,2011-10-13,Roy Henry,Theresa Patterson,5.4709,100.24529,Batu Feringgi,MY,Kuala Lumpur,True,False,True,happy
2020-02-10,2020-02-16,Jordan Sullivan,Adam Smith,56.11281,69.49015,Ishim,RU,Yekaterinburg,True,False,True,hostile
2004-07-19,2004-09-04,Dennis Rice,Jeffrey Graves MD,36.0,139.55722,Okegawa,JP,Tokyo,False,False,True,lonely
1988-07-11,1988-08-16,Melissa May,Angela Strickland,51.78771,56.36091,Saraktash,RU,Yekaterinburg,False,True,True,worried
1999-06-11,1999-06-22,Stephanie Drake,Donna Mathis,35.8,137.23333,Gero,JP,Tokyo,False,True,True,tense
1996-02-08,1996-02-22,Charles Lane,Ashley Carr,23.9028,89.11943,Kushtia,BD,Dhaka,False,True,True,insulting
2003-07-27,2003-08-16,Curtis Rosales,Julie Lopez,22.88783,84.13864,Jashpurnagar,IN,Kolkata,False,False,True,lonely
2012-04-01,2012-04-11,Taylor Short,Beth Cuevas,17.30858,97.01124,Kyaikto,MM,Yangon,False,True,False,oblivious
2013-10-17,2013-11-25,James Mejia,Nicholas Rowe,22.83957,91.84128,Manikchari,BD,Dhaka,False,True,True,scared
1989-09-04,1989-10-13,Jonathan Garcia,Michael Woods,9.82564,78.25795,Tiruppuvanam,IN,Kolkata,False,False,True,tense
2003-05-25,2003-07-21,Shannon Mcbride,James Whitehead,19.21667,73.08333,Dombivli,IN,Kolkata,False,False,True,unhappy
1987-04-19,1987-06-12,Michelle Kim,Robert Baird,24.41288,76.56719,Aklera,IN,Kolkata,True,True,True,fleeing
1997-09-30,1997-11-28,Timothy Yang,Alexis Conway PhD,58.23583,92.48278,Lesosibirsk,RU,Krasnoyarsk,False,True,True,insulting
1993-12-04,1994-01-01,William Dorsey,Sherry Aguilar,32.87533,71.57118,Daud Khel,PK,Karachi,False,True,True,oblivious
1995-07-25,1995-08-04,Daniel Williams,Stephen Mills,35.82756,137.95378,Ina,JP,Tokyo,True,False,False,over-complimenting
2013-02-03,2013-03-25,Marissa Castro,Cristina Reynolds,25.66795,85.83636,Dalsingh Sarai,IN,Kolkata,False,True,True,out-of-control
1990-12-20,1990-12-29,Elizabeth Bell,Leslie Anderson,23.07492,88.28637,Pandua,IN,Kolkata,False,False,True,insulting
2006-10-17,2006-11-12,Jennifer Gonzales,William Wood,-7.73379,113.69785,Besuki,ID,Jakarta,False,True,True,out-of-control
2011-07-14,2011-09-09,Kenneth Montgomery,Lauren Smith,5.90702,116.10146,Donggongon,MY,Kuching,False,False,True,talkative
2006-01-12,2006-03-08,Gregory Sherman,Kathy Meadows,10.29085,105.75635,Sa Dec,VN,Ho Chi Minh,False,False,True,happy
1989-07-09,1989-07-16,Veronica Wilkins,Gregory Moore,31.82539,72.54064,Sillanwali,PK,Karachi,False,True,True,injured
2020-03-17,2020-04-23,Steven Wright,Stacey Morris,25.95533,68.88871,Jhol,PK,Karachi,False,True,True,friendly
1989-12-01,1990-01-06,Brian Rowe,Kevin Contreras,40.49748,44.7662,Hrazdan,AM,Yerevan,False,True,True,hostile
2008-04-15,2008-05-31,Dr. Joseph Hernandez,Patricia Perez,10.13361,124.84472,Maasin,PH,Manila,True,True,True,oblivious
2021-05-24,2021-06-28,Rebecca Hatfield,Daniel Lewis,32.57756,71.52847,Mianwali,PK,Karachi,False,False,True,injured
2007-06-08,2007-06-28,Christopher Davis,Christine Obrien,26.76628,83.36889,Gorakhpur,IN,Kolkata,True,False,False,worried
1989-08-04,1989-08-17,Theresa Gomez,Stephen Mills,22.75218,72.68533,Kheda,IN,Kolkata,False,False,True,insulting
1990-01-06,1990-02-27,Pamela Boyd,Jennifer Swanson,-7.57897,112.23109,Diwek,ID,Jakarta,False,False,True,scared
2012-06-19,2012-07-30,Albert Contreras,Ashley Carr,29.69221,72.54566,Hasilpur,PK,Karachi,False,True,True,tense
2010-09-05,2010-10-01,Mr. Tyler Macias,Miranda Lester,6.33444,124.95278,Tupi,PH,Manila,False,True,True,evasive
1995-09-14,1995-10-17,Michael Phillips,Julia Cannon,38.40917,112.73333,Xinzhou,CN,Shanghai,False,False,True,evasive
1987-08-27,1987-10-22,Kristi Weaver,Kimberly Gibson,35.0,136.51667,Komono,JP,Tokyo,False,True,True,fleeing
2011-06-23,2011-08-18,Bonnie Tate,James Burnett,30.29184,71.67164,Qadirpur Ran,PK,Karachi,False,False,True,friendly
1988-09-17,1988-10-26,Ashley Cherry DDS,Jeremy Mason,45.47885,133.42825,Lesozavodsk,RU,Vladivostok,False,True,True,confessing
2007-11-11,2007-12-01,Michael Moody,Kelly Lindsey,43.82634,144.09638,Motomachi,JP,Tokyo,False,False,True,hostile
1994-08-21,1994-08-26,Dorothy Thompson,Michael Mueller,36.33011,138.89585,Annaka,JP,Tokyo,False,True,True,confessing
2019-12-09,2019-12-15,John Jackson,Lacey Brown,17.54907,82.85749,Elamanchili,IN,Kolkata,False,True,True,unhappy
1993-01-08,1993-02-01,Dana Gilbert,Bradley Ewing,35.50056,117.63083,Pingyi,CN,Shanghai,False,True,True,unhappy
1994-04-12,1994-04-15,Ms. Nancy Miller,Gabrielle Mendez,6.84019,79.87116,Dehiwala-Mount Lavinia,LK,Colombo,False,True,True,complaining
2000-03-26,2000-05-04,Edwin Reilly,Julian Anderson,35.95664,36.7138,Binnish,SY,Damascus,False,False,True,over-complimenting
1996-07-11,1996-08-29,Edward Young,Nicole Payne,-6.91806,106.92667,Sukabumi,ID,Jakarta,False,True,True,silent
2004-12-04,2004-12-19,Joanne Porter,Jennifer Swanson,0.51667,101.44167,Pekanbaru,ID,Jakarta,False,False,True,talkative
1998-09-02,1998-10-29,Crystal Ward,Victor Tapia,25.95533,68.88871,Jhol,PK,Karachi,False,True,True,complaining
2014-08-04,2014-09-21,Robert Moore,Stephanie Mcmillan,27.85,112.9,Xiangtan,CN,Shanghai,False,True,True,lonely
2003-12-27,2004-02-02,Mackenzie Jackson,Shelly Espinoza,-7.01833,107.60389,Pameungpeuk,ID,Jakarta,False,True,True,evasive
2002-09-01,2002-10-20,Fred Smith,Joshua Moore,22.37066,114.10479,Tsuen Wan,HK,Hong Kong,False,False,True,paranoid
2016-05-11,2016-05-12,Jasmine Castillo MD,Lauren Johnson,26.44931,91.61356,Rangia,IN,Kolkata,False,False,True,panicking
1997-11-21,1997-12-23,Kenneth Huffman,Jeremy Mccullough,29.21399,78.95693,Kashipur,IN,Kolkata,False,True,True,happy
2006-05-05,2006-06-27,John Gomez,Parker Mitchell,25.49043,85.94001,Teghra,IN,Kolkata,False,True,True,silent
2005-06-02,2005-06-06,Rachael Henderson,Mrs. Kristin Lopez MD,31.71667,73.38333,Sangla Hill,PK,Karachi,False,True,True,oblivious
1994-03-28,1994-04-02,Robert Salazar,Zachary Hawkins,14.37395,100.48528,Bang Ban,TH,Bangkok,False,True,True,lonely
1997-07-22,1997-09-08,Brandon Prince,Casey Weber,22.88783,84.13864,Jashpurnagar,IN,Kolkata,False,True,True,happy
1985-06-28,1985-08-18,Melissa Jackson,Joseph Nguyen,17.30858,97.01124,Kyaikto,MM,Yangon,True,True,True,hostile
1987-12-10,1988-02-02,Aaron Jones,Tamara Hall,9.3337,122.8637,Santa Catalina,PH,Manila,False,True,False,accusatory
2018-06-28,2018-08-06,Ian Foster,Micheal Thomas,12.35275,121.06761,San Jose,PH,Manila,False,True,True,out-of-control
1997-01-05,1997-01-21,Bryan Hughes,Jessica Joseph,0.51667,101.44167,Pekanbaru,ID,Jakarta,True,True,True,happy
1988-07-17,1988-08-18,Jennifer Miller,Sonia Mcdaniel,32.54278,111.50861,Danjiangkou,CN,Shanghai,True,False,True,injured
2004-05-22,2004-06-29,Sharon Contreras,Garrett Cook,58.7002,59.4839,Kachkanar,RU,Yekaterinburg,True,False,False,unhappy
1996-06-14,1996-07-29,Samantha Phillips,Dr. Gregory Gibson,36.24624,139.07204,Fujioka,JP,Tokyo,False,True,True,happy
2002-06-12,2002-07-27,Sarah Smith,Jane Hall,13.8196,100.04427,Nakhon Pathom,TH,Bangkok,False,True,True,worried
1997-03-06,1997-04-16,Bryan Smith,Loretta Wood,33.4425,129.96972,Karatsu,JP,Tokyo,False,False,False,injured
1989-04-09,1989-05-14,Cynthia Gardner,Patricia Edwards,14.64056,104.64992,Kantharalak,TH,Bangkok,False,True,True,silent
1990-07-03,1990-08-26,Diana Davis,Kristen Peterson,12.97389,123.99333,Sorsogon,PH,Manila,False,False,False,unhappy
1996-01-18,1996-02-21,Mary Miller,Kimberly Stewart,19.21667,73.08333,Dombivli,IN,Kolkata,True,True,True,lonely
2006-06-14,2006-06-28,Hannah Pittman,Sarah Reynolds,42.64031,125.51176,Dongfeng,CN,Shanghai,False,True,True,confessing
2012-10-30,2012-11-04,Barry Garrett,Kathleen Hicks,54.48147,53.47103,Oktyabr‚Äôskiy,RU,Yekaterinburg,False,True,True,complaining
2018-04-30,2018-06-17,James Adkins,Patricia Edwards,13.65805,102.56365,Paoy Paet,KH,Phnom Penh,False,True,True,insulting
1999-12-07,1999-12-12,Kelly Chambers,Todd Robinson,38.45598,48.87498,Astara,AZ,Baku,False,True,True,confessing
1988-12-16,1988-12-20,Cristina Costa,Michael Tate,47.46657,84.87144,Zaysan,KZ,Almaty,False,True,True,complaining
1997-01-17,1997-01-24,Erin Brown,Ashley Davis,35.85,117.7,Dongdu,CN,Shanghai,False,False,True,hostile
2000-08-17,2000-10-11,Dana Solomon,Evan Perkins,23.02677,113.13148,Foshan,CN,Shanghai,False,True,True,over-complimenting
1996-09-13,1996-10-19,Wendy Washington,Kevin Evans,29.38242,70.91106,Alipur,PK,Karachi,False,True,True,friendly
2007-03-17,2007-05-03,Andre Campbell,Christopher Morris,14.0823,98.19151,Dawei,MM,Yangon,False,False,True,complaining
2013-03-10,2013-04-23,Dr. Melissa Anderson,Kevin Contreras,36.33011,138.89585,Annaka,JP,Tokyo,False,True,True,tense
2019-01-07,2019-01-21,Daniel Pham,Rachel Martin,21.34222,71.30633,Kundla,IN,Kolkata,False,False,True,complaining
2002-04-20,2002-04-29,Kimberly Church,Michael Barron,3.3285,99.1625,Tebingtinggi,ID,Jakarta,False,True,True,accusatory
1992-11-26,1992-12-08,Andrea Waters,Teresa Sanchez,34.81667,137.4,Toyokawa,JP,Tokyo,False,True,True,injured
2004-12-14,2004-12-29,Rebecca Haynes,Kevin Contreras,35.30889,139.55028,Kamakura,JP,Tokyo,False,True,False,complaining
1991-07-20,1991-09-05,Debbie Lewis,Sharon Young,42.64031,125.51176,Dongfeng,CN,Shanghai,False,True,True,oblivious
2009-06-28,2009-07-22,Daniel Stein,Jessica Conway,36.20389,127.08472,Nonsan,KR,Seoul,False,False,True,scared
2011-01-31,2011-02-07,Mark Vaughn,Adam Montes,22.75218,72.68533,Kheda,IN,Kolkata,False,True,True,panicking
2005-11-26,2006-01-19,Benjamin Herring,Nicole Scott,36.24624,139.07204,Fujioka,JP,Tokyo,False,False,True,insulting
1997-10-02,1997-11-23,Richard Williams,Marie Hernandez,15.58552,102.42587,Bua Yai,TH,Bangkok,False,True,True,out-of-control
1993-09-29,1993-10-26,Kari Mathis,Sharon Young,14.8361,120.97844,Guyong,PH,Manila,False,True,True,fleeing
2008-07-06,2008-07-09,Carl May,Nicole Hart,14.66,120.56528,Pilar,PH,Manila,False,False,True,paranoid
2017-08-11,2017-08-18,Maria Moore,Fernando Davis,10.7375,122.9666,Talisay,PH,Manila,False,False,True,over-complimenting
2003-07-31,2003-09-19,Michael Owens,Ms. Sheila Campbell MD,19.21667,73.08333,Dombivli,IN,Kolkata,True,True,True,unhappy
1989-09-17,1989-10-17,Tammy Jackson,Laura Reynolds,-8.43333,114.33333,Muncar,ID,Jakarta,False,True,True,panicking
2018-04-08,2018-05-12,Blake Park,Jeffrey Johnson,20.88197,85.83334,Bhuban,IN,Kolkata,False,True,True,fleeing
2004-02-15,2004-02-24,Christopher Copeland,Nicholas Powell,14.0823,98.19151,Dawei,MM,Yangon,False,False,True,injured
2020-02-01,2020-03-23,Andrea Martin,Robert Maxwell,40.11583,67.84222,Jizzax,UZ,Samarkand,False,False,True,worried
2003-04-29,2003-06-21,James Graves,Lauren Johnson,21.59983,71.21169,Amreli,IN,Kolkata,False,False,True,friendly
2002-07-01,2002-08-17,David Clark,Brandy Mendez,10.20898,123.758,Naga,PH,Manila,False,False,True,lonely
2003-03-10,2003-03-15,Alfred Hernandez,Steven Edwards,24.41288,76.56719,Aklera,IN,Kolkata,False,True,True,out-of-control
2014-05-22,2014-07-16,Emily Mclaughlin,Kimberly Cooper,36.53333,136.61667,Nonoichi,JP,Tokyo,False,True,True,worried
2018-05-26,2018-06-13,Courtney Potter,Andrew Miranda,25.66795,85.83636,Dalsingh Sarai,IN,Kolkata,False,True,True,scared
1998-05-25,1998-07-09,Natalie Hansen,Alan Ford,25.49043,85.94001,Teghra,IN,Kolkata,False,True,True,injured
1990-09-26,1990-10-23,Nicholas Serrano PhD,Destiny Peterson,23.29549,113.82465,Licheng,CN,Shanghai,False,False,True,complaining
2007-12-15,2007-12-23,Amber Bradshaw,James Burnett,-3.5403,118.9707,Majene,ID,Makassar,False,True,True,worried
1999-12-20,1999-12-22,Janet Pratt,Casey Wheeler,35.85,117.7,Dongdu,CN,Shanghai,False,True,True,friendly
2012-10-14,2012-11-20,Mary Williamson,David Strong,45.75279,130.57211,Boli,CN,Shanghai,False,True,True,happy
1989-11-04,1989-12-11,Jessica Garza,James Bryant,56.9083,60.8019,Beryozovsky,RU,Yekaterinburg,False,True,False,injured
2009-12-03,2010-01-21,Tina Mayer,Jose Hunt,34.8825,128.62667,Sinhyeon,KR,Seoul,True,False,True,confessing
1998-12-28,1999-02-07,Sonya Mccann,Brandy White,36.0,139.55722,Okegawa,JP,Tokyo,True,False,True,paranoid
1998-09-15,1998-10-02,Kevin Hammond,Marie Hernandez,6.84019,79.87116,Dehiwala-Mount Lavinia,LK,Colombo,False,True,True,out-of-control
2003-03-01,2003-04-09,Timothy Watson,Theresa Patterson,36.53333,136.61667,Nonoichi,JP,Tokyo,True,False,True,worried
1990-07-05,1990-07-09,Melissa Randall,Kari Chandler,-6.8048,110.8405,Kudus,ID,Jakarta,False,True,True,over-complimenting
2003-02-05,2003-03-03,Debra Lopez,Edward Anderson,-1.26753,116.82887,Balikpapan,ID,Makassar,False,True,True,unhappy
2016-03-14,2016-05-11,Patricia Bentley,Brittany Burnett,3.3285,99.1625,Tebingtinggi,ID,Jakarta,True,False,True,injured
1988-05-24,1988-06-16,Chelsea Smith,Joseph Nguyen,53.14657,140.72287,Nikolayevsk-on-Amure,RU,Vladivostok,False,False,True,confessing
1997-12-26,1998-02-21,Angela Hendrix,David Strong,36.75965,137.36215,Namerikawa,JP,Tokyo,False,True,True,sad
1986-10-26,1986-11-24,Daniel Wilkinson,Charlene Mccormick,41.09246,45.36561,Qazax,AZ,Baku,False,False,True,panicking
1987-07-09,1987-07-23,Cody Stein,Karen Weber,36.53333,136.61667,Nonoichi,JP,Tokyo,False,False,True,insulting
2014-12-18,2014-12-22,Henry Jones,Cathy Durham,23.73333,114.68333,Heyuan,CN,Shanghai,False,True,False,tense
2002-11-08,2002-12-06,Marie Santos,Scott Nixon,15.46063,99.89166,Thap Than,TH,Bangkok,False,True,True,tense
2021-12-11,2021-12-30,James Lee,Marie Hernandez,30.35028,112.19028,Jingzhou,CN,Shanghai,False,True,True,tense
2018-02-24,2018-02-27,Jennifer Jones,Ashley Davis,12.97389,123.99333,Sorsogon,PH,Manila,False,False,False,evasive
1994-05-29,1994-06-25,Anthony Christian,Dean Martinez,53.30972,83.62389,Novosilikatnyy,RU,Barnaul,False,True,False,friendly
2010-11-13,2010-12-23,Kelly Myers,Mary Weaver,47.83333,59.6,Shalqar,KZ,Aqtobe,False,True,True,evasive
1990-09-11,1990-10-20,Rebecca Jones,Leslie Anderson,14.8361,120.97844,Guyong,PH,Manila,False,False,True,scared
2000-06-15,2000-07-28,Jay Brown,Sarah Reynolds,3.31332,117.59152,Tarakan,ID,Makassar,False,False,False,insulting
1988-09-09,1988-09-18,Robin Gonzales,Emily Brown,36.24624,139.07204,Fujioka,JP,Tokyo,False,True,True,panicking
2005-09-20,2005-09-24,Sabrina Duffy,Matthew Young,37.56667,140.11667,Inawashiro,JP,Tokyo,False,False,True,oblivious
2021-06-15,2021-07-08,Deanna Jarvis,Frank Gutierrez,14.66,120.56528,Pilar,PH,Manila,False,True,True,hostile
2004-08-20,2004-09-17,Juan Walker,Sarah Reynolds,14.0823,98.19151,Dawei,MM,Yangon,True,True,True,panicking
2005-07-16,2005-09-13,Peter Cardenas,Gabriel Jones,47.83333,59.6,Shalqar,KZ,Aqtobe,False,False,False,oblivious
2013-01-15,2013-02-23,Valerie Weeks,Darren Simpson,11.50526,77.23826,Sathyamangalam,IN,Kolkata,False,True,True,confessing
2014-06-04,2014-06-14,Mark Ward,Matthew Wagner,12.97389,123.99333,Sorsogon,PH,Manila,False,True,True,confessing
1997-11-07,1997-11-09,Amanda Love,Katelyn Cook,55.8736,85.4265,Yashkino,RU,Novokuznetsk,False,True,False,evasive
1994-02-23,1994-04-22,Margaret Parker,William Gallagher,-7.0981,109.3243,Randudongkal,ID,Jakarta,True,True,True,talkative
2014-08-12,2014-10-09,Matthew Webb,Rebecca Snyder MD,58.63667,59.80222,Lesnoy,RU,Yekaterinburg,False,False,True,happy
2009-05-07,2009-05-14,Allison Smith,Rebecca Rodriguez,23.18,88.58,Aistala,IN,Kolkata,False,False,True,complaining
2018-05-31,2018-07-26,Tabitha Herman,Destiny Peterson,40.11583,67.84222,Jizzax,UZ,Samarkand,False,False,True,friendly
1999-10-15,1999-11-04,Scott Anderson,Tanya Conley,23.18,88.58,Aistala,IN,Kolkata,False,True,True,silent
2019-10-10,2019-10-24,Sarah Hernandez,Mackenzie Gilbert,34.65918,109.22921,Yanliang,CN,Shanghai,False,True,True,paranoid
1995-05-31,1995-06-14,Cody Nelson,Lisa Sweeney,6.9909,79.883,Hendala,LK,Colombo,False,False,True,lonely
2014-12-08,2014-12-12,Claudia Woods,Sarah Reynolds,15.72892,120.57224,Burgos,PH,Manila,False,False,True,out-of-control
2007-04-12,2007-05-27,Marcus Long,Jimmy Patel,24.28859,116.11768,Meizhou,CN,Shanghai,False,False,True,over-complimenting
1994-03-04,1994-03-24,Olivia Gonzalez,Larry Braun,37.1759,128.9889,T‚Äôaebaek,KR,Seoul,False,False,False,complaining
2000-08-05,2000-08-10,Natasha Patterson,Brian Haas,37.65639,126.835,Goyang-si,KR,Seoul,False,True,True,tense
2004-02-08,2004-03-14,Wendy Terry,Karen Nguyen,36.75965,137.36215,Namerikawa,JP,Tokyo,True,False,True,tense
2001-01-20,2001-03-06,Rachel Hamilton,Meghan Owens,33.86419,48.26258,Aleshtar,IR,Tehran,False,True,True,silent
2002-12-13,2003-01-17,Chad Jackson,Timothy Maldonado,14.0823,98.19151,Dawei,MM,Yangon,False,True,True,sad
2016-01-16,2016-03-04,Michael Rodriguez,Mr. Frederick Bryant,16.0438,120.4861,Manaoag,PH,Manila,False,False,True,complaining
2004-09-15,2004-10-25,Ronald Carter,Regina Henderson,6.33444,124.95278,Tupi,PH,Manila,False,False,True,unhappy
1993-12-29,1994-01-07,Felicia Beltran,Adam Montes,23.5654,119.58627,Magong,TW,Taipei,False,True,True,evasive
2009-10-14,2009-11-07,Mason Ramirez,John Turner,38.40917,112.73333,Xinzhou,CN,Shanghai,False,False,True,scared
2016-03-06,2016-04-07,Kevin Cruz,Kimberly Cooper,33.86419,48.26258,Aleshtar,IR,Tehran,False,True,True,tense
2022-01-28,2022-02-09,Lisa Chapman,John Wright,27.9247,78.40102,Chharra,IN,Kolkata,False,True,True,oblivious
2006-10-22,2006-10-24,Kevin Simmons,Angel Payne,10.29085,105.75635,Sa Dec,VN,Ho Chi Minh,False,True,True,hostile
1990-10-24,1990-12-01,Gina Gibson,David Harrington,32.61603,44.02488,Karbala,IQ,Baghdad,False,True,True,tense
1985-08-02,1985-09-23,Sharon Hoffman,Billy White,18.87813,72.93924,Uran,IN,Kolkata,False,False,True,happy
2001-10-28,2001-12-17,James Lucero,Scott Houston,9.57046,76.32756,Kalavoor,IN,Kolkata,True,False,True,accusatory
1998-09-29,1998-11-07,Terri Mitchell MD,Lauren Smith,30.81383,75.16878,Moga,IN,Kolkata,False,True,True,accusatory
2012-11-03,2012-11-06,Nancy Reynolds,David Richardson,30.35028,112.19028,Jingzhou,CN,Shanghai,False,True,True,over-complimenting
1987-02-16,1987-02-26,Alison Pena,Patrick Stephens,33.78333,114.51667,Wacheng,CN,Shanghai,False,False,True,injured
2016-12-13,2016-12-22,Heidi Mckenzie,Gregory Hanson,26.76628,83.36889,Gorakhpur,IN,Kolkata,False,True,False,happy
2006-10-11,2006-10-21,James Mathis,Lisa Sweeney,24.28859,116.11768,Meizhou,CN,Shanghai,False,True,True,oblivious
2003-05-04,2003-05-28,Jennifer Adams,Eugene Brown,25.92127,86.79271,Madhipura,IN,Kolkata,False,True,True,silent
1985-10-27,1985-11-18,Jason Graham,Steven Edwards,35.06667,135.21667,Sasayama,JP,Tokyo,False,True,False,over-complimenting
1986-06-24,1986-07-08,Amanda Smith,Gordon Jimenez,25.6439,77.9129,Narwar,IN,Kolkata,False,False,True,talkative
1992-11-13,1993-01-02,Philip Cooley,James Kennedy,-1.26424,104.09701,Simpang,ID,Jakarta,False,False,True,panicking
2001-06-23,2001-06-28,Laura Mosley,Dawn Pierce,34.86472,117.55417,Zaozhuang,CN,Shanghai,True,False,False,panicking
1999-11-08,1999-11-13,William Perez,Jessica Rogers,26.76628,83.36889,Gorakhpur,IN,Kolkata,False,False,True,lonely
1988-10-18,1988-12-04,Michelle Robbins,Nicholas Powell,30.76468,74.12286,Kanganpur,PK,Karachi,True,False,True,tense
1993-05-27,1993-07-06,Michael Fields,Ashley Larson,36.0,139.55722,Okegawa,JP,Tokyo,False,True,True,lonely
2001-06-03,2001-07-08,Jonathan Contreras DDS,Timothy Williams,40.93333,73.0,Jalal-Abad,KG,Bishkek,False,True,False,friendly
2001-02-26,2001-04-16,Rachel Robinson,Karen Weber,40.78206,72.34424,Andijon,UZ,Tashkent,False,True,True,insulting
2009-06-15,2009-06-26,Nicholas Rivera,Mark Ferguson,25.6439,77.9129,Narwar,IN,Kolkata,False,False,True,tense
2006-12-26,2007-01-15,Courtney Rodriguez,Alexis Conway PhD,2.2139,102.3278,Kampung Ayer Molek,MY,Kuala Lumpur,False,True,True,unhappy
1991-07-14,1991-07-19,Brian Williams,Richard Lambert,11.12018,76.11996,Manjeri,IN,Kolkata,False,True,True,oblivious
1994-08-26,1994-10-03,Lisa Atkinson,Dana Parker,24.81757,84.63445,Rafiganj,IN,Kolkata,False,True,True,unhappy
1993-10-03,1993-12-01,Mrs. Linda Dean,Ashley Taylor,15.72892,120.57224,Burgos,PH,Manila,False,False,True,silent
1989-02-10,1989-02-16,Kelly Zhang,Sarah Green,-1.6,103.61667,Jambi City,ID,Jakarta,False,True,True,worried
1988-07-01,1988-07-26,Joshua Vazquez,Allen Baker,35.64889,117.27583,Sishui,CN,Shanghai,False,True,True,confessing
1989-12-27,1989-12-27,Kelly Sandoval,Nicole Hinton,9.3337,122.8637,Santa Catalina,PH,Manila,False,False,True,scared
1997-11-27,1998-01-01,Katherine Jones,Laura Reynolds,41.77583,140.73667,Hakodate,JP,Tokyo,False,True,True,unhappy
2013-11-30,2013-12-22,Chad Brooks Jr.,Sandra Odonnell,0.51667,101.44167,Pekanbaru,ID,Jakarta,False,False,True,lonely
2018-09-17,2018-10-06,Kevin Lee,Melinda Soto,15.46063,99.89166,Thap Than,TH,Bangkok,False,True,True,oblivious
2020-07-29,2020-08-31,James Santos,Karen Keller MD,40.78206,72.34424,Andijon,UZ,Tashkent,False,True,True,panicking
2009-07-17,2009-08-06,Todd Guerra,Denise Johnson,32.57756,71.52847,Mianwali,PK,Karachi,False,True,True,scared
1991-06-22,1991-06-23,Ronald Joseph,Garrett Martinez,56.9083,60.8019,Beryozovsky,RU,Yekaterinburg,False,False,True,happy
2014-08-07,2014-09-24,Roberto Chaney,Kerry Buck,9.57046,76.32756,Kalavoor,IN,Kolkata,False,False,True,injured
1992-04-29,1992-05-11,Crystal Johnson,Amy Gomez,32.57756,71.52847,Mianwali,PK,Karachi,False,False,True,out-of-control
2018-09-18,2018-11-08,Debra Hughes,Rebecca Jackson,27.34089,117.4831,Shaowu,CN,Shanghai,False,True,True,friendly
1996-09-04,1996-10-20,Kimberly Patterson,Anita Gray,15.58552,102.42587,Bua Yai,TH,Bangkok,False,True,True,worried
2016-04-05,2016-04-08,Alexandra Logan,Richard Reyes,15.72892,120.57224,Burgos,PH,Manila,False,True,True,confessing
2007-03-06,2007-03-12,Austin Mcgrath,Rebecca Jackson,40.85158,122.74754,Haicheng,CN,Shanghai,False,False,False,friendly
2012-08-15,2012-09-07,Linda Turner,Sara Chavez,40.49748,44.7662,Hrazdan,AM,Yerevan,False,False,True,insulting
1989-07-21,1989-08-08,Angelica Johnson,Michael Woods,65.93381,111.4834,Aykhal,RU,Yakutsk,True,True,True,tense
1985-07-14,1985-09-11,Christopher Jefferson,Hannah Palmer,23.07492,88.28637,Pandua,IN,Kolkata,False,True,True,oblivious
1989-11-08,1989-11-30,Angel Hutchinson,Charlene Mccormick,25.75728,75.37991,Deoli,IN,Kolkata,False,False,True,lonely
1990-03-06,1990-04-03,Philip Long,Charlene Mccormick,35.20889,111.73861,Changzhi,CN,Shanghai,False,False,True,complaining
1992-05-11,1992-05-29,George Mendez,Meredith Gibbs,25.6439,77.9129,Narwar,IN,Kolkata,False,True,True,evasive
2020-04-27,2020-05-11,Chase Bailey,Maria Tucker,12.37169,123.62494,Masbate,PH,Manila,False,False,True,scared
1986-04-20,1986-06-12,Miranda Poole,Cynthia Moore,47.46657,84.87144,Zaysan,KZ,Almaty,False,True,True,complaining
1989-06-30,1989-07-08,Dr. Marissa Hamilton,Maria Tucker,25.87498,86.59611,Saharsa,IN,Kolkata,False,False,True,unhappy
2013-08-06,2013-09-19,Daniel Rogers,Evan Perkins,34.86472,117.55417,Zaozhuang,CN,Shanghai,False,True,True,injured
2016-04-17,2016-05-13,Kendra English,Marie Hernandez,35.815,139.6853,Shimotoda,JP,Tokyo,False,False,True,talkative
1999-07-01,1999-07-10,Ashley Hernandez,Rebecca Rodriguez,6.33444,124.95278,Tupi,PH,Manila,False,True,True,out-of-control
2010-12-04,2010-12-31,Jill Ford,Laura Reynolds,33.4425,129.96972,Karatsu,JP,Tokyo,False,True,True,unhappy
2005-08-24,2005-09-18,Nathan Castro,Elizabeth Cooper,58.23583,92.48278,Lesosibirsk,RU,Krasnoyarsk,False,False,True,complaining
2002-02-04,2002-02-26,Paul Vargas,Nicole Payne,30.24706,115.04814,Huangshi,CN,Shanghai,False,True,True,sad
1998-05-29,1998-07-04,Stephanie Wilson,Patrick Stephens,16.0438,120.4861,Manaoag,PH,Manila,False,True,True,injured
2014-06-28,2014-07-20,Morgan Williams,Mr. Shannon Sharp,12.35275,121.06761,San Jose,PH,Manila,False,True,True,happy
2019-04-29,2019-05-23,Leah Powers,Amy Moore,35.8,137.23333,Gero,JP,Tokyo,False,True,True,happy
1996-08-13,1996-08-18,Micheal Hernandez,Shelley Sheppard,32.65246,51.67462,Isfahan,IR,Tehran,True,False,False,out-of-control
2010-06-26,2010-06-30,Michael Miller,Matthew Brown,40.85158,122.74754,Haicheng,CN,Shanghai,False,True,True,unhappy
2005-06-09,2005-06-09,Daniel Carter,Mr. Shannon Sharp,40.49748,44.7662,Hrazdan,AM,Yerevan,False,True,True,paranoid
2009-01-15,2009-01-17,Deborah Weaver,David Strong,17.54907,82.85749,Elamanchili,IN,Kolkata,False,True,True,over-complimenting
2016-03-20,2016-05-05,Kristen Kline,Destiny Peterson,34.8825,128.62667,Sinhyeon,KR,Seoul,False,True,True,unhappy
2010-04-01,2010-05-13,John Davis,James Whitehead,25.87498,86.59611,Saharsa,IN,Kolkata,False,True,True,injured
2019-06-22,2019-08-06,Vincent Wood DDS,Leslie Curtis,-6.8048,110.8405,Kudus,ID,Jakarta,False,False,True,panicking
1996-10-28,1996-12-18,Natalie Compton,James Williams,42.64031,125.51176,Dongfeng,CN,Shanghai,False,True,True,talkative
1985-11-03,1985-12-27,Ryan Harrell,Wayne Knight,27.9247,78.40102,Chharra,IN,Kolkata,False,True,True,oblivious
1996-09-11,1996-10-11,Megan Novak,Rebecca Jackson,40.49748,44.7662,Hrazdan,AM,Yerevan,False,True,True,unhappy
2007-11-09,2007-11-16,Allen Cook,David Wagner,17.34769,78.55757,Lal Bahadur Nagar,IN,Kolkata,False,True,False,fleeing
2012-08-31,2012-09-07,Ernest Williams,Robert Meyer,35.20889,111.73861,Changzhi,CN,Shanghai,False,True,True,confessing
2000-05-21,2000-06-20,Kimberly Brown,Jeffrey Johnson,32.87533,71.57118,Daud Khel,PK,Karachi,False,False,True,tense
2009-02-16,2009-04-15,Deanna Shelton,Theresa Patterson,40.93333,73.0,Jalal-Abad,KG,Bishkek,False,True,True,silent
2020-08-20,2020-08-29,Lisa Bailey,Susan Bowers,35.95664,36.7138,Binnish,SY,Damascus,True,True,True,friendly
1986-06-26,1986-07-24,Richard Douglas,Rachel Martin,15.73628,75.96976,Gajendragarh,IN,Kolkata,True,True,True,complaining
1998-08-10,1998-09-21,Alexis Duran,Jeanette Martinez,25.92127,86.79271,Madhipura,IN,Kolkata,False,False,True,worried
1995-06-19,1995-06-21,Nicole Smith,Christine Obrien,11.50526,77.23826,Sathyamangalam,IN,Kolkata,False,True,True,panicking
1987-05-07,1987-06-01,Lindsay Richmond,Adam Mathis,25.87498,86.59611,Saharsa,IN,Kolkata,False,False,True,happy
1999-04-21,1999-05-02,Stephanie Wallace,Christopher Bell,32.05971,34.8732,Ganei Tikva,IL,Jerusalem,False,True,True,paranoid
1996-06-10,1996-07-26,Veronica Gray,Scott Nixon,14.0823,98.19151,Dawei,MM,Yangon,False,True,True,hostile
2020-02-26,2020-04-11,Amanda Dodson,Michael Riddle,31.82539,72.54064,Sillanwali,PK,Karachi,False,False,True,out-of-control
2001-01-03,2001-03-03,Kylie Thompson,Brandi Jones,37.73222,115.70111,Hengshui,CN,Shanghai,False,True,True,evasive
1998-10-08,1998-10-08,Melissa Mann,Brooke Crawford,34.08565,74.80555,Srinagar,IN,Kolkata,False,True,False,insulting
2013-05-07,2013-06-07,Christopher Taylor,Kim Dyer,25.80565,68.49143,Bhit Shah,PK,Karachi,False,False,True,fleeing
1993-07-11,1993-08-05,Allen Preston,Victoria Rodriguez,6.25947,102.05461,Tak Bai,TH,Bangkok,False,True,True,insulting
2011-12-02,2011-12-31,Scott Brooks MD,Holly Chapman,51.82721,107.60627,Ulan-Ude,RU,Irkutsk,False,True,True,out-of-control
1995-01-23,1995-02-20,Tiffany Clark,Logan Duncan,36.24624,139.07204,Fujioka,JP,Tokyo,False,True,True,lonely
2018-10-21,2018-11-09,Maria Bass,Mackenzie Gilbert,28.92694,78.23456,Bachhraon,IN,Kolkata,False,True,True,fleeing
2006-04-30,2006-05-09,Zachary Ruiz,Nicole Hinton,29.69221,72.54566,Hasilpur,PK,Karachi,False,True,True,accusatory
1992-02-11,1992-04-01,Jared Garza,Matthew Brown,55.54028,89.20083,Sharypovo,RU,Krasnoyarsk,False,True,True,panicking
2018-10-25,2018-11-12,Justin Cuevas,Ray Hall,5.90702,116.10146,Donggongon,MY,Kuching,True,True,True,accusatory
2021-02-14,2021-03-09,Kevin Roberts,James Williams,36.75965,137.36215,Namerikawa,JP,Tokyo,True,True,True,silent
1993-07-31,1993-08-10,Robert Jones,Richard Lambert,-8.99167,125.21972,Maliana,TL,Dili,False,False,True,fleeing
1997-12-12,1997-12-14,Taylor Navarro,Denise Park,34.85,117.33333,Taozhuang,CN,Shanghai,True,True,True,sad
2022-02-03,2022-03-24,Nicholas Bird,Robert Arellano,30.76468,74.12286,Kanganpur,PK,Karachi,False,False,True,friendly
2013-10-14,2013-11-29,Steve Buchanan,Gregory Hanson,36.75965,137.36215,Namerikawa,JP,Tokyo,False,False,True,evasive
1988-06-16,1988-07-30,Dr. Michelle Jackson,Shelley Bullock,-3.5403,118.9707,Majene,ID,Makassar,False,True,True,sad
2009-02-27,2009-04-07,Heather Butler,Brian Hickman,14.53767,46.83187,Ataq,YE,Aden,False,True,True,unhappy
1986-04-06,1986-05-23,Edward Melton,Janice Carroll,56.9083,60.8019,Beryozovsky,RU,Yekaterinburg,False,False,True,insulting
1995-09-03,1995-10-18,Todd Jackson,Kimberly Cooper,6.33444,124.95278,Tupi,PH,Manila,True,False,True,out-of-control
1986-09-25,1986-10-17,Tiffany Jordan,Jennifer Shannon,27.0174,49.62251,Al Jubayl,SA,Riyadh,False,False,True,friendly
2004-05-26,2004-07-13,Mary Rodriguez,Scott Houston,32.65246,51.67462,Isfahan,IR,Tehran,False,True,True,complaining
2020-10-06,2020-11-09,Wesley Warren,Christopher Baker,25.66795,85.83636,Dalsingh Sarai,IN,Kolkata,False,True,True,confessing
2004-05-27,2004-06-14,Melissa Jackson,Kelly Lindsey,34.25,135.31667,Iwade,JP,Tokyo,False,True,True,talkative
2008-08-18,2008-09-19,Anita Robles,Sharon Young,33.37526,74.3092,Rajaori,IN,Kolkata,False,True,True,talkative
1991-10-07,1991-12-04,Melissa Lambert,Hunter Lee,41.09822,120.74792,Nanpiao,CN,Shanghai,False,True,True,talkative
2005-07-09,2005-07-15,Julian Matthews,Mr. James Hooper,13.44581,101.18445,Phanat Nikhom,TH,Bangkok,False,True,True,over-complimenting
1992-02-25,1992-02-25,James Jones,Julie Lopez,31.71667,73.38333,Sangla Hill,PK,Karachi,False,False,True,hostile
2005-04-23,2005-05-03,Rebecca Lewis,Richard Reyes,38.55632,69.01354,Vahdat,TJ,Dushanbe,False,True,False,insulting
2003-08-02,2003-08-19,Christy Morrow,Lacey Brown,-1.6,103.61667,Jambi City,ID,Jakarta,False,True,True,silent
2018-01-11,2018-01-15,Omar Chavez,Nicole Hart,-1.26424,104.09701,Simpang,ID,Jakarta,False,True,True,silent
1996-02-26,1996-03-13,Dana Lamb,Robert Arellano,9.3337,122.8637,Santa Catalina,PH,Manila,False,False,True,oblivious
2003-03-22,2003-04-05,Susan Smith,Sarah Green,-7.73379,113.69785,Besuki,ID,Jakarta,False,True,True,injured
2001-12-13,2002-02-05,Natasha Mooney,Summer Mosley,10.20898,123.758,Naga,PH,Manila,False,False,True,tense
2003-10-02,2003-11-12,Brian Pena,Rachel Lucas,13.44581,101.18445,Phanat Nikhom,TH,Bangkok,False,True,True,talkative
2022-01-20,2022-03-20,Tina Long,Jacob Santiago,13.51825,99.95469,Damnoen Saduak,TH,Bangkok,False,False,True,worried
2006-11-08,2006-12-02,Kerry Russo,Aaron Nguyen,30.76468,74.12286,Kanganpur,PK,Karachi,False,False,True,scared
2022-02-18,2022-02-25,Wendy Robles,Cynthia Moore,34.56861,105.89333,Beidao,CN,Shanghai,False,False,False,friendly
2010-08-11,2010-08-29,John Hodges,Christopher Baker,33.78333,114.51667,Wacheng,CN,Shanghai,False,True,False,scared
2007-02-15,2007-04-06,Caitlin Wagner,Mr. Frederick Bryant,34.86472,117.55417,Zaozhuang,CN,Shanghai,False,False,True,lonely
1991-01-09,1991-03-09,Marisa Castillo,Meghan Owens,32.55531,76.12647,Chamba,IN,Kolkata,False,True,True,panicking
2001-02-05,2001-02-15,William Martin,Ray Hall,23.29549,113.82465,Licheng,CN,Shanghai,False,False,False,over-complimenting
2003-12-12,2003-12-16,James Massey,Crystal Kelly,25.92493,73.66633,Sojat,IN,Kolkata,False,False,True,unhappy
1987-02-13,1987-03-22,Adam Graham,Annette Barrett,3.31332,117.59152,Tarakan,ID,Makassar,False,True,True,panicking
1991-12-29,1992-01-02,Megan Gonzales,Christopher Morrison,-6.8048,110.8405,Kudus,ID,Jakarta,True,True,True,insulting
2008-03-03,2008-03-16,Rachel Ross,Lindsey Hoover,11.50526,77.23826,Sathyamangalam,IN,Kolkata,False,True,True,talkative
1993-10-31,1993-12-28,Jennifer Zuniga,Chad Chandler,44.85278,65.50917,Kyzylorda,KZ,Qyzylorda,False,True,True,complaining
1990-09-22,1990-11-07,Jennifer Brown,Evan Perkins,58.23583,92.48278,Lesosibirsk,RU,Krasnoyarsk,False,True,True,injured
2005-11-14,2005-12-19,Martin Singh,Kaitlyn Booker,45.35,126.28333,Shuangcheng,CN,Shanghai,True,True,True,fleeing
1997-12-29,1998-01-26,Tyler Miller,Amy Gomez,47.83333,59.6,Shalqar,KZ,Aqtobe,False,False,True,happy
2017-09-16,2017-10-13,Ernest Meyers,Brian Torres,-7.81667,112.01667,Kediri,ID,Jakarta,False,True,True,silent
1994-02-11,1994-04-05,Michael Jones DDS,Patricia Edwards,35.85,117.7,Dongdu,CN,Shanghai,False,True,True,out-of-control
2005-04-17,2005-05-06,Rick Patel,Gregory Hanson,30.24706,115.04814,Huangshi,CN,Shanghai,False,True,True,friendly
1987-10-01,1987-10-12,Matthew Medina,Shelly Espinoza,37.19723,122.05228,Tianfu,CN,Shanghai,False,True,True,evasive
2015-10-25,2015-10-28,Kelly Thomas,Michael Barron,32.65246,51.67462,Isfahan,IR,Tehran,False,True,True,talkative
2010-11-27,2011-01-19,Travis Braun,Stephen Ferguson,14.62072,74.83554,Sirsi,IN,Kolkata,False,True,True,panicking
2012-01-31,2012-03-30,Scott Johnson,Mallory Wu,22.4711,88.1453,Pujali,IN,Kolkata,False,True,True,scared
1999-10-28,1999-12-02,Jennifer Burns,Mrs. Kristin Lopez MD,31.92923,34.86563,Ramla,IL,Jerusalem,False,False,True,sad
2021-04-15,2021-05-08,Gina Summers,Ashley Davis,6.95194,121.96361,Recodo,PH,Manila,True,True,True,out-of-control
2016-07-08,2016-07-11,Leslie Espinoza,Jerry Stephenson,26.32293,91.00632,Barpeta,IN,Kolkata,False,True,True,sad
2003-04-30,2003-05-09,Adam Carr,David Woodward,27.52948,68.75915,Khairpur Mir‚Äôs,PK,Karachi,False,True,True,accusatory
1998-08-12,1998-09-05,Peter Sullivan,David Simmons,29.22254,79.5286,Haldwani,IN,Kolkata,False,True,True,fleeing
2014-01-21,2014-03-20,Kristi Leon,Melvin Hansen,10.10649,76.35484,Alwaye,IN,Kolkata,False,False,True,talkative
2014-02-27,2014-03-25,Jared Howard,Rhonda Jones,34.81667,137.4,Toyokawa,JP,Tokyo,False,True,True,fleeing
2018-12-03,2019-01-12,Jennifer Hawkins,Kathleen Castro,27.92333,118.53333,Pucheng,CN,Shanghai,False,True,True,oblivious
2018-10-11,2018-12-02,Robert Wade,Courtney Thompson,25.87498,86.59611,Saharsa,IN,Kolkata,False,True,True,accusatory
1998-10-24,1998-12-19,Isaiah Jackson,Jennifer Swanson,11.93381,79.82979,Puducherry,IN,Kolkata,False,True,True,evasive
2016-07-26,2016-09-07,Dennis Young,Mallory Wu,39.46667,141.95,Yamada,JP,Tokyo,True,False,True,happy
2021-02-15,2021-02-19,Megan Rogers,Alexandra Jones,30.76468,74.12286,Kanganpur,PK,Karachi,False,True,True,talkative
2018-01-23,2018-03-09,Bradley Li,Mark Valenzuela,25.75728,75.37991,Deoli,IN,Kolkata,False,True,True,evasive
1999-10-07,1999-12-03,Brittney Hodge,Evelyn Hines,16.06213,76.0586,Hungund,IN,Kolkata,False,False,True,friendly
2001-02-13,2001-03-09,James Walsh,Leslie Curtis,23.02677,113.13148,Foshan,CN,Shanghai,False,True,True,oblivious
2007-05-23,2007-06-17,David Ford,Jamie Martin,10.29085,105.75635,Sa Dec,VN,Ho Chi Minh,True,True,True,friendly
2011-04-14,2011-05-16,Paul Bush,Taylor Robinson,22.19303,88.18466,Diamond Harbour,IN,Kolkata,False,True,False,friendly
2006-01-30,2006-03-26,David Lee,David Woodward,13.51825,99.95469,Damnoen Saduak,TH,Bangkok,False,False,True,tense
2005-03-24,2005-04-29,Michael Edwards,Michael Tate,36.33011,138.89585,Annaka,JP,Tokyo,False,True,True,confessing
1987-09-23,1987-11-05,Jessica Brown,Sharon Young,10.12268,77.54372,Periyakulam,IN,Kolkata,False,True,True,happy
1991-01-06,1991-01-20,Michael Weiss,Kristen Peterson,34.9,137.5,Shinshiro,JP,Tokyo,False,True,True,injured
2002-08-21,2002-09-30,Kelly Edwards,Cynthia Carr,31.92923,34.86563,Ramla,IL,Jerusalem,False,True,True,out-of-control
1997-02-05,1997-03-29,Brooke Decker,William Barton,32.57756,71.52847,Mianwali,PK,Karachi,True,True,True,complaining
2008-10-23,2008-11-17,Larry Chan,Hannah Lindsey,34.5624,38.28402,Tadmur,SY,Damascus,False,True,True,hostile
2011-08-02,2011-09-03,William Arias,Dawn Pierce,56.11281,69.49015,Ishim,RU,Yekaterinburg,True,True,True,sad
1996-12-30,1997-02-10,Jason Williams,Mr. James Hooper,16.0438,120.4861,Manaoag,PH,Manila,True,True,True,evasive
1985-10-17,1985-12-02,Roy Cisneros,Laura Santana,18.87813,72.93924,Uran,IN,Kolkata,False,False,True,sad
1995-09-09,1995-09-11,Christopher Jones,Mary Scott,12.04161,75.35927,Talipparamba,IN,Kolkata,False,True,True,sad
1995-11-15,1996-01-02,Adam Johnson,Lauren Johnson,36.21544,65.93249,Sar-e Pul,AF,Kabul,True,True,True,paranoid
1989-12-14,1989-12-19,Megan Garcia,Hannah Lindsey,47.90771,106.88324,Ulan Bator,MN,Ulaanbaatar,False,True,True,friendly
1988-01-30,1988-02-03,Timothy Phillips,Shelley Bullock,9.6531,124.3697,Jagna,PH,Manila,False,False,True,silent
2014-04-27,2014-04-29,Paul Rodriguez,Karen Nguyen,32.61603,44.02488,Karbala,IQ,Baghdad,False,False,True,oblivious
2007-07-06,2007-07-15,John Stanton Jr.,Jane Hall,19.21667,73.08333,Dombivli,IN,Kolkata,False,False,True,insulting
1993-01-11,1993-02-03,Robert Chase,Nancy White,-6.48167,106.85417,Cibinong,ID,Jakarta,False,True,False,evasive
2000-12-18,2000-12-19,Valerie Johnson,Emily Brown,38.45598,48.87498,Astara,AZ,Baku,False,True,True,scared
2000-10-19,2000-11-10,Brian Osborne,Christina Krause,31.92923,34.86563,Ramla,IL,Jerusalem,False,False,True,worried
1985-08-16,1985-09-29,Tyler Richards,Jamie Price,33.3213,130.94098,Hita,JP,Tokyo,False,False,True,scared
2018-03-12,2018-04-15,Misty Bennett,Linda Porter DVM,13.51825,99.95469,Damnoen Saduak,TH,Bangkok,False,False,True,friendly
2013-02-09,2013-02-09,Melanie Camacho,Michael Woods,55.8736,85.4265,Yashkino,RU,Novokuznetsk,False,True,True,insulting
1993-03-02,1993-04-01,Sarah Davis,Brian Thomas,23.02677,113.13148,Foshan,CN,Shanghai,False,True,True,friendly
1986-12-25,1987-01-12,Taylor Krause,Adam Montes,37.1759,128.9889,T‚Äôaebaek,KR,Seoul,False,True,True,happy
1989-06-29,1989-08-17,Dr. Heidi Harper,Jerry Erickson,16.0567,103.65309,Roi Et,TH,Bangkok,False,True,True,scared
1992-10-16,1992-11-07,Jorge Lopez,James Burnett,15.46063,99.89166,Thap Than,TH,Bangkok,False,True,True,complaining
2015-01-06,2015-01-23,Michael Rivera,Misty Young,23.18,88.58,Aistala,IN,Kolkata,False,True,False,friendly
2004-08-06,2004-09-29,Kim Thomas,Denise Davis,27.0174,49.62251,Al Jubayl,SA,Riyadh,False,False,True,oblivious
2000-11-26,2000-12-11,Devin Frank,Micheal Thomas,34.86472,117.55417,Zaozhuang,CN,Shanghai,False,False,True,over-complimenting
2007-08-11,2007-08-27,Karen Stewart,Martin Diaz,39.46667,141.95,Yamada,JP,Tokyo,False,False,True,happy
2009-04-12,2009-05-24,Robert Powers,Darlene Pitts,38.45598,48.87498,Astara,AZ,Baku,True,True,True,evasive
1998-09-12,1998-09-26,Kyle Foster,Brandon Miller,41.09822,120.74792,Nanpiao,CN,Shanghai,False,True,True,insulting
1989-11-17,1989-12-25,Patricia Ryan,Robert Merritt,45.75279,130.57211,Boli,CN,Shanghai,False,True,True,talkative
2009-08-14,2009-09-16,Amy Cortez,Ashley Carr,36.21544,65.93249,Sar-e Pul,AF,Kabul,False,True,True,unhappy
2008-07-18,2008-09-14,Lisa Cherry,William Wood,34.8825,128.62667,Sinhyeon,KR,Seoul,False,False,True,happy
2020-10-07,2020-10-24,Meredith Giles,Kim Dyer,35.8,137.23333,Gero,JP,Tokyo,False,True,True,accusatory
2014-08-28,2014-09-14,Micheal Pena,Chris Campbell Jr.,55.8736,85.4265,Yashkino,RU,Novokuznetsk,False,True,True,lonely
2014-04-25,2014-05-12,Brandon Mason,Brian Hickman,36.0,139.55722,Okegawa,JP,Tokyo,False,False,True,oblivious
2018-12-22,2019-01-14,Samantha Silva,Ronald Wong PhD,-7.73379,113.69785,Besuki,ID,Jakarta,False,False,True,unhappy
2004-01-25,2004-01-27,Kelli Parks,Jeffrey Freeman,27.85,112.9,Xiangtan,CN,Shanghai,False,False,True,complaining
1990-12-18,1990-12-31,Cameron Bond,James Bryant,-7.51611,109.05389,Wangon,ID,Jakarta,False,True,False,sad
2005-11-30,2006-01-12,Roger Avery,Kathryn Martin,46.08333,122.08333,Ulanhot,CN,Shanghai,False,True,True,injured
2020-04-16,2020-04-25,Ronald Riley,Karen Weber,36.81667,117.81667,Zhoucun,CN,Shanghai,False,False,True,complaining
1996-07-20,1996-08-06,Mrs. Michelle Baker,Nicole Scott,31.78336,35.23388,East Jerusalem,PS,Hebron,False,False,True,sad
2002-05-30,2002-07-18,Andrew Bentley,Alvin Alvarez,41.77583,140.73667,Hakodate,JP,Tokyo,False,False,True,confessing
2014-05-25,2014-07-18,Christopher Anderson,Logan Duncan,27.52948,68.75915,Khairpur Mir‚Äôs,PK,Karachi,True,False,True,sad
2011-03-23,2011-04-10,Laura Adkins,Tracy Young,34.4833,136.84186,Toba,JP,Tokyo,True,True,True,hostile
1989-07-14,1989-07-28,William Mccarthy,Charles Leonard,31.78336,35.23388,East Jerusalem,PS,Hebron,False,False,True,complaining
1996-05-04,1996-05-05,Henry Morrow,Regina Henderson,41.82143,41.77921,Kobuleti,GE,Tbilisi,False,True,True,insulting
2005-04-29,2005-06-07,Curtis Jackson,Eddie Hall,36.20389,127.08472,Nonsan,KR,Seoul,False,True,True,happy
1999-10-03,1999-11-25,Dawn Potter,Nicole Adams,44.85278,65.50917,Kyzylorda,KZ,Qyzylorda,True,True,True,panicking
1988-07-25,1988-07-28,Alexander Hickman,Crystal Kelly,27.55898,68.21204,Larkana,PK,Karachi,False,False,True,out-of-control
1992-03-11,1992-05-01,Peter Burns,Justin Whitehead,40.66482,122.22833,Yingkou,CN,Shanghai,True,False,True,confessing
2009-03-12,2009-03-13,Frank Schwartz,Glenn Li,25.92493,73.66633,Sojat,IN,Kolkata,False,True,True,sad
2015-12-26,2016-01-30,Kathleen Kennedy,Donna Martin,32.87533,71.57118,Daud Khel,PK,Karachi,False,False,True,worried
2006-04-07,2006-04-08,Steven Knapp,Jamie Price,38.45598,48.87498,Astara,AZ,Baku,True,True,False,worried
1986-08-01,1986-09-24,Jacob West,Elizabeth Martinez,8.56697,123.33471,Dipolog,PH,Manila,False,True,False,confessing
1993-07-29,1993-09-04,Ryan Weeks,Jeanette Martinez,15.58552,102.42587,Bua Yai,TH,Bangkok,False,True,True,fleeing
2013-12-11,2014-01-28,Eric Walker,Susan Bowers,20.88197,85.83334,Bhuban,IN,Kolkata,False,True,True,out-of-control
2008-02-17,2008-03-03,Kevin Mccoy,David Murphy,21.53889,71.57737,Gariadhar,IN,Kolkata,False,True,True,complaining
2010-12-30,2011-02-23,Chelsea Carroll,Stephanie Mcmillan,34.5624,38.28402,Tadmur,SY,Damascus,False,False,True,panicking
1995-09-25,1995-11-20,Anthony Jefferson,Jeffrey Bush,14.62072,74.83554,Sirsi,IN,Kolkata,False,True,True,scared
1985-12-28,1986-01-31,Amy Lewis,John Hayes,26.44931,91.61356,Rangia,IN,Kolkata,False,True,True,accusatory
2022-06-22,2022-06-22,Aaron Ballard,Brooke Crawford,33.4425,129.96972,Karatsu,JP,Tokyo,False,True,True,accusatory
2013-04-10,2013-05-07,Patricia Obrien,Nicole Hinton,41.29444,69.67639,Parkent,UZ,Tashkent,False,False,False,scared
2011-05-17,2011-07-12,Charles Mercado,Matthew Young,37.65639,126.835,Goyang-si,KR,Seoul,False,False,True,silent
2017-10-07,2017-11-16,Matthew Reese,Latasha Norris,4.88441,101.96857,Gua Musang,MY,Kuala Lumpur,False,True,True,silent
2010-09-20,2010-10-19,Brandon Crawford,Daniel Brown,16.68911,98.50893,Myawadi,MM,Yangon,False,False,True,over-complimenting
1994-12-19,1995-01-10,Amy Wolfe,James Brock,35.20889,111.73861,Changzhi,CN,Shanghai,False,True,True,talkative
1998-04-09,1998-04-24,Kayla Brown,Aaron Nguyen,46.08333,122.08333,Ulanhot,CN,Shanghai,False,True,True,worried
1992-04-23,1992-05-25,David Miller,James Whitehead,16.06213,76.0586,Hungund,IN,Kolkata,False,True,True,happy
1992-10-26,1992-11-03,Paul Hartman,Valerie Griffin,34.65918,109.22921,Yanliang,CN,Shanghai,False,True,True,happy
2011-01-14,2011-01-31,Tom Porter,Garrett Allen,32.57756,71.52847,Mianwali,PK,Karachi,False,False,True,friendly
2009-11-21,2009-12-24,Andrew Johnson,Kathleen Castro,30.46907,70.96699,Kot Addu,PK,Karachi,False,False,True,paranoid
2002-06-04,2002-07-09,Sara King,Charles Mitchell,32.55531,76.12647,Chamba,IN,Kolkata,False,True,True,injured
2012-10-24,2012-11-09,Shirley Barker,Holly Chapman,12.35275,121.06761,San Jose,PH,Manila,False,True,True,worried
1995-02-04,1995-02-10,Mark Duke,Logan Duncan,18.18158,76.03889,Osmanabad,IN,Kolkata,False,False,True,accusatory
2015-05-17,2015-06-11,Robert Mckenzie,Brian Hickman,22.88783,84.13864,Jashpurnagar,IN,Kolkata,False,False,True,out-of-control
1999-08-05,1999-09-26,Heather Kelly,Isabel Webb,35.85,117.7,Dongdu,CN,Shanghai,False,True,True,tense
2016-04-20,2016-06-04,Amy Richardson,Katelyn Garcia,12.04161,75.35927,Talipparamba,IN,Kolkata,False,True,True,panicking
1995-03-11,1995-03-19,Dr. Jasmine Leonard DVM,Annette Barrett,15.5439,73.7553,Calangute,IN,Kolkata,False,False,True,accusatory
2002-10-20,2002-11-23,Robin Flores,Joseph Nguyen,34.5624,38.28402,Tadmur,SY,Damascus,False,True,True,tense
1998-10-17,1998-11-20,Dr. Jeremy Montgomery,Paul Garner,32.17629,75.06583,Fazilpur,PK,Karachi,False,True,True,friendly
1991-02-03,1991-03-29,Jason Hernandez,Paul Garner,26.32293,91.00632,Barpeta,IN,Kolkata,False,True,True,out-of-control
2010-04-12,2010-05-21,Kimberly Ray,Casey Wheeler,37.65181,120.33063,Longgang,CN,Shanghai,False,True,True,out-of-control
2003-12-26,2004-01-27,William Moore,Nicholas Powell,41.09246,45.36561,Qazax,AZ,Baku,False,False,True,out-of-control
2015-09-10,2015-10-15,Marilyn Price,Valerie Griffin,24.05979,77.40858,Leteri,IN,Kolkata,False,True,False,sad
2011-04-11,2011-04-29,Dr. Joseph Pena,Theresa Patterson,51.78771,56.36091,Saraktash,RU,Yekaterinburg,False,False,True,confessing
1995-12-03,1996-01-26,Erin Blackwell,Kenneth Gutierrez,12.97389,123.99333,Sorsogon,PH,Manila,False,False,True,injured
2006-03-05,2006-03-20,Jonathan Wagner,Natalie Jordan,1.6,103.81667,Ulu Tiram,MY,Kuala Lumpur,False,False,False,scared
2018-11-18,2018-12-17,Holly Andersen,Deborah Holden,36.19278,117.65694,Laiwu,CN,Shanghai,False,False,True,injured
1997-01-15,1997-02-19,Michael Hill,Wesley Horton,6.25947,102.05461,Tak Bai,TH,Bangkok,False,True,True,sad
1987-09-04,1987-11-02,Charles Lawson,Jennifer Hoffman,32.65246,51.67462,Isfahan,IR,Tehran,False,True,True,injured
2019-12-15,2020-01-05,Christina Brooks,Jessica Rogers,41.09822,120.74792,Nanpiao,CN,Shanghai,False,False,True,lonely
2013-04-14,2013-05-03,Tracy Silva,Linda Finley,41.09822,120.74792,Nanpiao,CN,Shanghai,False,False,True,worried
2003-05-14,2003-07-11,Dr. Felicia Foster,Matthew Wagner,13.65805,102.56365,Paoy Paet,KH,Phnom Penh,False,False,True,complaining
2015-07-06,2015-08-08,Kimberly Rodriguez,Sarah Peters,38.40917,112.73333,Xinzhou,CN,Shanghai,False,True,True,happy
1987-05-17,1987-07-15,Steven Carroll,Cynthia Carr,35.64889,117.27583,Sishui,CN,Shanghai,False,True,True,worried
2000-09-04,2000-09-22,Patrick Nelson,Natalie Jordan,44.35056,142.45778,Nayoro,JP,Tokyo,False,True,True,evasive
2004-05-04,2004-06-27,Jennifer Massey,Kari Chandler,35.82756,137.95378,Ina,JP,Tokyo,False,True,True,worried
2011-01-21,2011-01-31,Shelia Jones,Scott Anderson Jr.,13.65805,102.56365,Paoy Paet,KH,Phnom Penh,False,False,True,lonely
2010-07-06,2010-08-16,Mrs. Cynthia Clark,Julia Cannon,34.08565,74.80555,Srinagar,IN,Kolkata,False,True,True,panicking
2012-06-15,2012-07-14,Corey Bishop,Zachary Moore,32.65246,51.67462,Isfahan,IR,Tehran,False,True,True,tense
1998-06-24,1998-07-05,Derek Raymond,Jamie Price,30.35028,112.19028,Jingzhou,CN,Shanghai,False,True,True,injured
1997-01-06,1997-02-19,Stacy Harris,Rachel Martin,10.58806,77.24779,Udumalaippettai,IN,Kolkata,False,True,True,worried
1992-11-02,1992-11-15,Andrew Wyatt,Megan West,31.71667,73.38333,Sangla Hill,PK,Karachi,False,True,True,friendly
2013-05-18,2013-05-21,Amber Byrd,Gordon Jimenez,14.0823,98.19151,Dawei,MM,Yangon,False,True,True,hostile
2017-01-10,2017-01-15,Jamie Downs,Michael Mueller,10.7375,122.9666,Talisay,PH,Manila,False,True,True,friendly
2007-08-06,2007-08-21,Deborah Patterson,Jerry Stephenson,35.82756,137.95378,Ina,JP,Tokyo,False,True,False,worried
1986-11-26,1986-12-26,Sheri Perez,William Joseph,38.40917,112.73333,Xinzhou,CN,Shanghai,True,False,True,hostile
1992-10-04,1992-10-29,Mr. Gabriel Norman,Sue Norman DVM,30.21121,74.4818,Malaut,IN,Kolkata,False,True,True,paranoid
2011-07-13,2011-09-07,Robyn Clark,Glenn Li,16.0438,120.4861,Manaoag,PH,Manila,True,False,True,hostile
2005-03-20,2005-04-20,Breanna Miller,Charles Mitchell,13.51825,99.95469,Damnoen Saduak,TH,Bangkok,False,False,True,hostile
1992-07-18,1992-09-03,Andrew Houston,Kayla Klein,30.81383,75.16878,Moga,IN,Kolkata,False,True,True,evasive
2012-10-04,2012-11-19,Dustin Mendoza,Christina Ball,-7.0981,109.3243,Randudongkal,ID,Jakarta,False,False,True,over-complimenting
1987-11-26,1988-01-21,Larry Simmons,Brandy Mendez,26.9423,68.11759,Tharu Shah,PK,Karachi,False,True,True,out-of-control
2002-06-16,2002-06-26,Stacey Mcclure,Daniel Moore,12.97389,123.99333,Sorsogon,PH,Manila,True,False,True,evasive
2016-02-07,2016-02-23,Andrew Williams,Denise Kramer,14.46693,75.92694,Davangere,IN,Kolkata,True,True,True,panicking
2009-04-23,2009-05-21,Mitchell Chandler,Robert Maxwell,27.0174,49.62251,Al Jubayl,SA,Riyadh,False,True,True,sad
1996-08-22,1996-09-29,Leslie Archer,Ashley Vaughn,18.51957,73.85535,Pune,IN,Kolkata,False,True,True,panicking
2006-05-04,2006-06-25,Jeffrey Martinez,James Williams,10.31672,123.89071,Cebu City,PH,Manila,False,True,True,unhappy
1995-03-04,1995-03-16,Richard Fox,Matthew Young,-1.26424,104.09701,Simpang,ID,Jakarta,False,True,True,unhappy
1994-04-26,1994-04-30,Nicholas Little,Destiny Peterson,11.00599,77.5609,Kangayam,IN,Kolkata,False,True,False,sad
2009-09-01,2009-10-23,Jasmine Strickland,Karen Weber,10.58806,77.24779,Udumalaippettai,IN,Kolkata,False,True,True,accusatory
2008-03-17,2008-04-08,Charles Harrington,Sarah Peters,23.5654,119.58627,Magong,TW,Taipei,False,False,True,paranoid
2017-09-15,2017-10-02,Henry White,Charlene Mccormick,34.65918,109.22921,Yanliang,CN,Shanghai,False,True,False,sad
1985-09-17,1985-10-01,Miss Suzanne English PhD,Rebecca Russell,51.82721,107.60627,Ulan-Ude,RU,Irkutsk,False,True,True,oblivious
2021-12-14,2022-02-05,Robert Sosa,Brittany Burnett,53.14657,140.72287,Nikolayevsk-on-Amure,RU,Vladivostok,False,True,True,fleeing
2017-02-11,2017-03-26,Richard Thomas,Jamie Martin,39.46667,141.95,Yamada,JP,Tokyo,False,True,True,scared
2020-09-15,2020-10-10,Brian Salazar,Robert Merritt,31.96258,73.97117,Naushahra Virkan,PK,Karachi,False,False,True,insulting
1998-07-18,1998-08-14,Christopher Brown,Kenneth Stevenson,23.5654,119.58627,Magong,TW,Taipei,False,False,True,unhappy
1994-11-28,1995-01-06,Olivia Harris,Hannah Lindsey,41.09246,45.36561,Qazax,AZ,Baku,False,True,True,oblivious
2019-09-06,2019-10-15,Jennifer Skinner,Nicole Adams,19.21667,73.08333,Dombivli,IN,Kolkata,True,True,True,evasive
2010-11-28,2010-12-04,Laura Barker,Jerry Collins,32.05971,34.8732,Ganei Tikva,IL,Jerusalem,False,True,True,lonely
2022-05-04,2022-05-26,Joseph Chavez,Austin Summers,36.82167,128.63083,Eisen,KR,Seoul,False,False,True,unhappy
2007-05-26,2007-06-17,Kelly Lewis,Mallory Wu,22.37066,114.10479,Tsuen Wan,HK,Hong Kong,False,True,True,confessing
1985-12-09,1986-01-22,Alexander Flores,Darlene Pitts,23.5654,119.58627,Magong,TW,Taipei,False,True,True,insulting
2013-04-28,2013-05-02,Steven Hawkins,Destiny Peterson,5.4709,100.24529,Batu Feringgi,MY,Kuala Lumpur,False,True,False,happy
2015-06-20,2015-08-10,John Carroll,Jessica Duran,27.34089,117.4831,Shaowu,CN,Shanghai,False,True,True,panicking
1998-07-09,1998-07-22,Melissa Hines,Christopher Sandoval,55.75556,60.70278,Ozersk,RU,Yekaterinburg,True,True,True,worried
1998-03-19,1998-03-26,Henry Webb,Mrs. Kristin Lopez MD,23.18,88.58,Aistala,IN,Kolkata,False,True,True,paranoid
2021-08-18,2021-09-01,Amy Diaz,Jennifer George,27.85,112.9,Xiangtan,CN,Shanghai,False,False,True,paranoid
2002-11-05,2002-11-08,Cody Paul,Brandon Miller,18.87813,72.93924,Uran,IN,Kolkata,False,True,True,paranoid
2017-11-24,2018-01-04,Donald Carlson,Allen Baker,43.41949,77.0202,Otegen Batyra,KZ,Almaty,False,True,True,friendly
1985-11-02,1985-12-14,Megan Mills,Brittany Henderson,-7.54972,110.71639,Ngemplak,ID,Jakarta,False,False,True,friendly
1999-10-09,1999-11-26,James Arias,Timothy Williams,33.14447,47.3799,Darreh Shahr,IR,Tehran,False,True,True,tense
2019-02-05,2019-02-09,Jessica Pena,Garrett Martinez,41.94175,123.50266,Hushitai,CN,Shanghai,False,True,True,evasive
2021-06-08,2021-06-15,Cynthia Griffith,Kevin Contreras,33.78333,114.51667,Wacheng,CN,Shanghai,False,True,True,paranoid
2001-02-04,2001-02-14,Carlos Parker,Jasmine Rowland,29.22254,79.5286,Haldwani,IN,Kolkata,True,True,True,hostile
2008-05-06,2008-05-10,Alexandra Lewis,Christopher Ross,35.8,137.23333,Gero,JP,Tokyo,False,False,True,tense
2011-03-25,2011-05-01,Michael Pope,Rose Reed,60.97944,76.92421,Izluchinsk,RU,Yekaterinburg,False,True,True,lonely
1986-06-12,1986-06-12,Jodi Kelly,Barbara Bailey,24.28859,116.11768,Meizhou,CN,Shanghai,False,False,True,hostile
2016-12-06,2016-12-20,Jessica Hill,Emily Ruiz,32.61603,44.02488,Karbala,IQ,Baghdad,False,True,True,scared
2011-10-31,2011-11-25,Brittany Calderon,Christopher Morrison,22.37066,114.10479,Tsuen Wan,HK,Hong Kong,False,False,True,evasive
2022-04-08,2022-05-17,James Nash,Julie Nguyen,30.35028,112.19028,Jingzhou,CN,Shanghai,True,False,True,silent
2019-03-24,2019-05-03,Tyrone Scott,Amy Moore,-7.0981,109.3243,Randudongkal,ID,Jakarta,False,False,True,unhappy
1988-08-14,1988-08-26,James Butler,Angelica Chan,22.75218,72.68533,Kheda,IN,Kolkata,True,True,True,happy
2006-04-04,2006-04-17,Mr. Jon Stone,Shelly Espinoza,23.5654,119.58627,Magong,TW,Taipei,False,True,True,accusatory
1993-10-16,1993-11-09,James Jones,Kevin Martin,51.82721,107.60627,Ulan-Ude,RU,Irkutsk,False,False,True,sad
2021-02-06,2021-03-03,Brent Pitts,Michael Smith,35.20889,111.73861,Changzhi,CN,Shanghai,False,False,True,panicking
2019-04-26,2019-06-02,Ashley Cross MD,Daniel Lewis,15.5439,73.7553,Calangute,IN,Kolkata,False,True,True,over-complimenting
1991-10-10,1991-10-26,Heather Moore,Laura Santana,37.56667,140.11667,Inawashiro,JP,Tokyo,True,False,True,sad
2014-02-28,2014-04-17,Carlos Lowe,Kimberly Perez,14.66,120.56528,Pilar,PH,Manila,False,False,True,happy
2010-06-14,2010-07-13,Peter Pearson,Laura Santana,-7.51611,109.05389,Wangon,ID,Jakarta,False,False,True,out-of-control
1996-03-24,1996-05-15,Mr. Gary Mccoy,Christine Shah,16.455,120.5875,La Trinidad,PH,Manila,False,True,True,injured
1996-08-14,1996-10-10,Michael Hoffman,Jordan Torres,53.14657,140.72287,Nikolayevsk-on-Amure,RU,Vladivostok,True,True,True,friendly
2011-12-08,2012-02-02,Michael Jones,Jacob Salazar,43.41949,77.0202,Otegen Batyra,KZ,Almaty,False,False,True,worried
1992-12-03,1992-12-06,Kevin Freeman,Judith Meyer,28.88162,120.03308,Guli,CN,Shanghai,False,True,False,lonely
1986-09-23,1986-11-21,Sarah Sutton,Julian Anderson,23.9028,89.11943,Kushtia,BD,Dhaka,True,True,True,injured
1994-09-22,1994-09-28,Austin Scott,Nathaniel Jackson,36.81667,117.81667,Zhoucun,CN,Shanghai,False,False,True,complaining
2001-05-21,2001-06-01,Victoria Martinez,Tanya Conley,34.08565,74.80555,Srinagar,IN,Kolkata,False,True,True,complaining
2014-01-01,2014-03-01,Kelsey Ferrell,Susan Bowers,14.8361,120.97844,Guyong,PH,Manila,False,True,True,insulting
2007-09-05,2007-10-15,David Bates,Denise Johnson,28.88162,120.03308,Guli,CN,Shanghai,True,True,True,over-complimenting
2006-05-11,2006-06-29,Kathy Wilson,Zachary Hawkins,15.73628,75.96976,Gajendragarh,IN,Kolkata,False,True,True,tense
1997-11-04,1997-12-30,David Hansen,Darren Simpson,54.48147,53.47103,Oktyabr‚Äôskiy,RU,Yekaterinburg,False,True,True,insulting
1986-07-10,1986-07-20,Benjamin Sheppard,Donald Pierce,10.12268,77.54372,Periyakulam,IN,Kolkata,False,True,True,panicking
2009-04-17,2009-06-06,Renee Castillo,Carrie Boone,25.13915,73.06784,Sheoganj,IN,Kolkata,False,True,True,unhappy
2015-10-11,2015-11-24,Amy Chan,Nicholas Jones,27.85,112.9,Xiangtan,CN,Shanghai,False,False,True,evasive
2002-06-09,2002-06-21,Nicole Hoffman,Jeffrey Graves MD,27.92333,118.53333,Pucheng,CN,Shanghai,False,True,True,lonely
2008-02-27,2008-03-09,Rebekah Alexander,Loretta Wood,36.82167,128.63083,Eisen,KR,Seoul,False,False,True,complaining
1992-11-29,1992-12-23,Mary Taylor,Nathaniel Jackson,37.65639,126.835,Goyang-si,KR,Seoul,False,False,True,panicking
2019-08-16,2019-08-27,Sue Gibson,Chad Chandler,26.76628,83.36889,Gorakhpur,IN,Kolkata,False,True,True,over-complimenting
1992-10-17,1992-11-02,Bailey Cardenas,Michael Smith,27.52948,68.75915,Khairpur Mir‚Äôs,PK,Karachi,True,False,True,friendly
2004-11-22,2004-11-29,Adam Zimmerman,Brendan Love,41.82143,41.77921,Kobuleti,GE,Tbilisi,False,True,True,happy
1986-11-12,1986-12-29,Michael Valentine,Kaitlyn Booker,41.94175,123.50266,Hushitai,CN,Shanghai,False,True,True,confessing
1996-06-02,1996-07-11,Adriana Meyer,Matthew Chavez,36.33011,138.89585,Annaka,JP,Tokyo,False,False,True,panicking
2000-02-04,2000-02-13,Tami Hill,Belinda Thompson,16.455,120.5875,La Trinidad,PH,Manila,False,False,True,panicking
2006-01-25,2006-02-06,Kimberly Browning,Mary Scott,51.4781,57.3552,Kuvandyk,RU,Yekaterinburg,False,True,True,insulting
2004-03-10,2004-04-18,Kristi Day,Hannah Lindsey,39.46667,141.95,Yamada,JP,Tokyo,False,True,True,unhappy
1994-08-30,1994-09-30,John Elliott,Garrett Moore,14.95472,120.89694,Baliuag,PH,Manila,False,True,True,silent
1995-10-13,1995-11-04,Dalton Thompson,Mrs. Amy Munoz PhD,12.1277,78.15794,Dharmapuri,IN,Kolkata,False,True,True,unhappy
2004-02-26,2004-03-28,Kevin Andersen,Linda Edwards,34.25,135.31667,Iwade,JP,Tokyo,False,True,True,accusatory
1991-02-08,1991-02-11,Kaitlyn Horton,Kimberly Cooper,27.85,112.9,Xiangtan,CN,Shanghai,False,False,True,over-complimenting
1988-12-13,1988-12-13,Ryan Maxwell,Kimberly Mills,12.1277,78.15794,Dharmapuri,IN,Kolkata,False,True,False,friendly
2015-04-22,2015-06-15,Stacy Nelson,Sandra Ramos,58.23583,92.48278,Lesosibirsk,RU,Krasnoyarsk,True,False,True,panicking
1988-06-14,1988-08-11,Amy Zimmerman,Larry King,32.54278,111.50861,Danjiangkou,CN,Shanghai,False,False,True,worried
2019-10-25,2019-10-25,Richard Harmon,Patrick Stephens,34.25,135.31667,Iwade,JP,Tokyo,False,False,False,friendly
1989-12-23,1990-02-10,Gregory Williamson,Scott Houston,11.93381,79.82979,Puducherry,IN,Kolkata,False,True,True,sad
2003-05-19,2003-05-27,Dr. Jennifer Thompson,Tracy Young,25.92493,73.66633,Sojat,IN,Kolkata,False,True,True,over-complimenting
1997-05-01,1997-06-10,Troy Rodriguez,Susan Bowers,-6.48167,106.85417,Cibinong,ID,Jakarta,False,False,True,accusatory
1992-02-08,1992-03-29,Kimberly Sanders,Jerry Stephenson,31.78336,35.23388,East Jerusalem,PS,Hebron,False,True,True,injured
1987-03-07,1987-03-16,Wendy Welch,David Woodward,34.75856,136.13108,Ueno-ebisumachi,JP,Tokyo,False,True,True,insulting
2010-11-18,2010-12-08,Erika Marquez,James Dawson,-6.91806,106.92667,Sukabumi,ID,Jakarta,False,False,True,happy
2004-07-26,2004-08-12,Jonathan Jones,James Burnett,16.68911,98.50893,Myawadi,MM,Yangon,False,True,True,out-of-control
2005-06-23,2005-07-12,Krista Sanchez,Kevin Evans,30.29184,71.67164,Qadirpur Ran,PK,Karachi,False,False,True,paranoid
2002-05-26,2002-06-15,Mario Nelson,William Barton,26.76628,83.36889,Gorakhpur,IN,Kolkata,True,False,True,worried
2007-09-07,2007-09-22,James Wilson,Beth Cuevas,14.64056,104.64992,Kantharalak,TH,Bangkok,False,False,True,paranoid
2017-12-13,2018-01-24,Melissa Taylor,Kenneth Stevenson,31.64615,120.74221,Changshu City,CN,Shanghai,True,True,True,oblivious
2006-06-09,2006-07-10,Zachary Hall,Michael Mueller,38.55632,69.01354,Vahdat,TJ,Dushanbe,False,True,True,unhappy
2010-02-14,2010-03-31,Kayla Weber,Maurice Mccarthy,27.85,112.9,Xiangtan,CN,Shanghai,False,True,True,confessing
2013-11-16,2013-11-19,Susan Williams,Jeanne Green,42.64031,125.51176,Dongfeng,CN,Shanghai,False,False,True,happy
1997-03-28,1997-04-07,Monica Morrison,Christopher Ross,16.0567,103.65309,Roi Et,TH,Bangkok,False,True,True,out-of-control
1990-09-07,1990-11-04,Daniel Ochoa,Jacob Carlson,27.0174,49.62251,Al Jubayl,SA,Riyadh,False,True,True,paranoid
2008-05-09,2008-06-02,Veronica Mccann,Candice Johnson,41.09822,120.74792,Nanpiao,CN,Shanghai,False,True,True,tense
2003-06-21,2003-07-24,Jesse Nelson,Natalie Jordan,21.53889,71.57737,Gariadhar,IN,Kolkata,False,False,True,friendly
2021-07-18,2021-08-17,Christian Morales,Laura Cook,25.87498,86.59611,Saharsa,IN,Kolkata,False,True,True,unhappy
2011-11-16,2011-12-30,Ricky Kim,Latasha Norris,14.0823,98.19151,Dawei,MM,Yangon,False,True,True,over-complimenting
2017-01-21,2017-01-28,Lee Dixon,Kimberly Gibson,55.8736,85.4265,Yashkino,RU,Novokuznetsk,False,False,True,worried
2013-07-14,2013-08-11,Timothy Lee,Linda Edwards,35.6803,51.0193,Shahre Jadide Andisheh,IR,Tehran,False,False,True,scared
2010-06-06,2010-07-13,Troy Gonzales,Jessica Duran,51.4781,57.3552,Kuvandyk,RU,Yekaterinburg,False,False,True,confessing
2008-06-22,2008-07-08,Darlene Mckay,Christopher Miller,21.46527,83.97573,Sambalpur,IN,Kolkata,False,False,True,over-complimenting
1993-05-12,1993-07-06,Matthew King,Michael Maynard,13.65805,102.56365,Paoy Paet,KH,Phnom Penh,False,True,True,complaining
2005-04-10,2005-04-26,Jorge Torres Jr.,Jamie Price,11.50526,77.23826,Sathyamangalam,IN,Kolkata,False,False,True,lonely
2008-04-26,2008-05-28,Dawn Wang,Julia Cannon,14.46693,75.92694,Davangere,IN,Kolkata,False,True,True,silent
2000-12-23,2001-01-24,Jean Meyers,Jennifer Cook,6.33444,124.95278,Tupi,PH,Manila,True,True,True,lonely
2013-08-23,2013-09-20,Sarah Cole,Cassidy Brown,30.29184,71.67164,Qadirpur Ran,PK,Karachi,False,True,True,evasive
1992-05-03,1992-06-13,John Williams,Jacob Santiago,41.27194,123.17306,Liaoyang,CN,Shanghai,False,True,True,insulting
1989-04-29,1989-06-07,Jacob Lee,Kyle Thomas,10.12268,77.54372,Periyakulam,IN,Kolkata,False,False,True,insulting
2006-01-13,2006-03-09,Robin Smith,Christina Krause,25.80565,68.49143,Bhit Shah,PK,Karachi,False,True,True,accusatory
1987-11-05,1987-12-01,David Hendricks,Candice Johnson,12.04161,75.35927,Talipparamba,IN,Kolkata,False,True,True,tense
2009-06-10,2009-07-03,Melvin Mendoza,Mr. Frederick Bryant,3.7278,98.6738,Labuhan Deli,ID,Jakarta,False,False,True,injured
2003-01-07,2003-01-14,Joshua Hoover,Jessica Duran,35.6803,51.0193,Shahre Jadide Andisheh,IR,Tehran,False,False,True,oblivious
2011-02-13,2011-02-27,Paul Baker,Leslie Curtis,47.83333,59.6,Shalqar,KZ,Aqtobe,True,True,True,complaining
2011-04-07,2011-05-27,Kenneth Carter,Glen Walker,36.65,138.31667,Suzaka,JP,Tokyo,False,False,True,scared
2008-08-01,2008-09-20,Terri Boyd,Rachel Martin,55.54028,89.20083,Sharypovo,RU,Krasnoyarsk,False,True,True,scared
2019-01-25,2019-02-10,Arthur Sloan,Angel Gonzales,15.5439,73.7553,Calangute,IN,Kolkata,False,False,True,oblivious
2021-06-04,2021-07-23,Amanda Reynolds,Angela Strickland,27.34089,117.4831,Shaowu,CN,Shanghai,True,False,True,fleeing
1998-11-21,1999-01-11,Mr. Jason Perez,Emily Santana,-7.57897,112.23109,Diwek,ID,Jakarta,False,True,True,oblivious
1992-09-07,1992-10-07,Cory Foster,Sharon Young,29.98869,122.20488,Zhoushan,CN,Shanghai,False,False,True,over-complimenting
2008-06-25,2008-07-28,Amy Gray,Ashley Vaughn,27.34089,117.4831,Shaowu,CN,Shanghai,True,True,True,unhappy
2018-02-08,2018-02-22,Eric Osborn,Timothy Davis,41.09246,45.36561,Qazax,AZ,Baku,False,True,True,fleeing
2004-12-22,2005-02-09,Brittany Hoffman,Christine Shah,40.66482,122.22833,Yingkou,CN,Shanghai,False,True,True,friendly
2016-02-11,2016-03-25,Melissa Crane,Anthony Hamilton,26.11527,86.59509,Supaul,IN,Kolkata,False,True,True,happy
2014-06-06,2014-07-21,Lisa Estrada,Misty Young,27.92333,118.53333,Pucheng,CN,Shanghai,False,False,True,accusatory
1998-06-06,1998-07-31,Larry Williams,Richard Green,43.41949,77.0202,Otegen Batyra,KZ,Almaty,False,True,True,panicking
1993-02-15,1993-03-10,Samuel Mcintosh,Donna Mathis,25.92493,73.66633,Sojat,IN,Kolkata,False,False,True,lonely
1986-05-16,1986-05-31,Jeffrey Diaz,John Carlson,-7.73379,113.69785,Besuki,ID,Jakarta,False,True,True,tense
1995-01-17,1995-02-24,Zoe Martinez,David Woodward,22.75218,72.68533,Kheda,IN,Kolkata,False,True,True,lonely
2007-11-15,2007-12-18,Michaela Gamble,Donna Mathis,36.33011,138.89585,Annaka,JP,Tokyo,False,False,True,oblivious
2014-10-09,2014-10-10,Eric Hernandez DDS,Richard Reyes,47.83333,59.6,Shalqar,KZ,Aqtobe,False,True,True,complaining
2008-03-22,2008-04-28,William Hampton,Brett Scott,34.75856,136.13108,Ueno-ebisumachi,JP,Tokyo,False,False,True,tense
1988-09-24,1988-11-13,Vanessa Reed,Bethany Chen,34.81667,137.4,Toyokawa,JP,Tokyo,False,True,True,oblivious
1985-12-26,1986-01-16,Katrina Davidson,William Zuniga,41.94175,123.50266,Hushitai,CN,Shanghai,False,True,True,paranoid
2009-09-11,2009-09-25,Justin Martinez,Theresa Patterson,22.75218,72.68533,Kheda,IN,Kolkata,False,True,True,over-complimenting
2000-09-21,2000-11-12,Kyle Ramirez,Jennifer Hoffman,55.54028,89.20083,Sharypovo,RU,Krasnoyarsk,False,True,True,paranoid
1989-03-18,1989-04-25,Dr. James Torres,Matthew Young,3.3285,99.1625,Tebingtinggi,ID,Jakarta,False,False,True,worried
1996-01-09,1996-02-16,Gloria Higgins,Natalie Patrick,14.95472,120.89694,Baliuag,PH,Manila,False,True,True,sad
2000-12-21,2001-02-03,Rose Douglas,Sarah Reynolds,37.73222,115.70111,Hengshui,CN,Shanghai,False,False,True,unhappy
2018-09-22,2018-10-20,Jessica Bruce,Anna Flores,44.85278,65.50917,Kyzylorda,KZ,Qyzylorda,False,False,True,sad
2015-10-12,2015-12-02,Jose Fernandez,Jennifer Snyder,17.34769,78.55757,Lal Bahadur Nagar,IN,Kolkata,False,True,True,talkative
1995-04-18,1995-05-10,Benjamin Johnson,Tracy Blackwell,37.56667,140.11667,Inawashiro,JP,Tokyo,False,True,True,out-of-control
2005-10-05,2005-11-05,Jeffrey Burns,Lauren Johnson,19.30157,72.85107,Bhayandar,IN,Kolkata,False,True,True,insulting
1985-12-19,1986-01-26,Lisa Everett,William Wood,1.6561,103.6032,Kulai,MY,Kuala Lumpur,True,True,False,silent
2000-10-12,2000-10-23,James Tyler,Garrett Moore,32.55531,76.12647,Chamba,IN,Kolkata,False,True,True,accusatory
1998-02-12,1998-03-24,Mary Mosley,Joshua Curtis,53.14657,140.72287,Nikolayevsk-on-Amure,RU,Vladivostok,False,False,True,hostile
1995-04-11,1995-06-03,Sarah Mckenzie,Edward Hernandez,51.82721,107.60627,Ulan-Ude,RU,Irkutsk,False,False,True,lonely
1990-09-02,1990-10-26,Jeffrey Michael,Mark Valenzuela,51.4781,57.3552,Kuvandyk,RU,Yekaterinburg,True,True,True,confessing
1994-09-29,1994-10-16,Michele Leonard DVM,James Anderson,24.05979,77.40858,Leteri,IN,Kolkata,False,False,True,panicking
2007-11-08,2007-11-26,Patricia Martinez,Kathleen Munoz,28.71271,77.656,Pilkhua,IN,Kolkata,True,True,True,hostile
2007-03-23,2007-04-17,Lisa Marks,Erin Ray,53.14657,140.72287,Nikolayevsk-on-Amure,RU,Vladivostok,False,False,True,insulting
2009-11-25,2009-12-11,Cristian Quinn,Alexis Conway PhD,33.78333,114.51667,Wacheng,CN,Shanghai,False,True,True,out-of-control
2009-09-24,2009-10-24,Samantha Bray,Darren Simpson,31.71667,73.38333,Sangla Hill,PK,Karachi,False,False,True,lonely
1991-06-26,1991-08-07,Teresa Young,Christine Obrien,51.78771,56.36091,Saraktash,RU,Yekaterinburg,False,True,True,worried
2001-07-27,2001-09-03,Shelley Phillips,Eric French,12.35275,121.06761,San Jose,PH,Manila,False,False,True,talkative
1990-02-25,1990-03-07,Diane Thompson,Janice Carroll,38.45598,48.87498,Astara,AZ,Baku,False,True,True,friendly
1999-12-24,2000-02-08,Johnny Price,Amber Wright,34.5624,38.28402,Tadmur,SY,Damascus,False,True,True,accusatory
1999-12-03,2000-01-21,James Campbell,Jeffrey Graves MD,9.6531,124.3697,Jagna,PH,Manila,False,False,True,friendly
1987-10-13,1987-11-27,Steven Diaz,Susan Thomas,6.84019,79.87116,Dehiwala-Mount Lavinia,LK,Colombo,False,True,True,hostile
2018-04-14,2018-05-15,Caitlin Rivera DDS,Michelle Jarvis,18.51957,73.85535,Pune,IN,Kolkata,False,True,True,fleeing
2006-01-17,2006-02-14,Steven Spears,Cassidy Brown,5.90702,116.10146,Donggongon,MY,Kuching,False,True,True,unhappy
1989-07-10,1989-07-24,Cynthia Bennett,Eric Wilson,10.13361,124.84472,Maasin,PH,Manila,False,True,True,paranoid
2001-10-16,2001-11-15,Thomas Anderson,Jesse Boyd,32.55531,76.12647,Chamba,IN,Kolkata,False,False,True,paranoid
1992-02-23,1992-04-22,Kristin Velazquez,Patricia Miller,29.22254,79.5286,Haldwani,IN,Kolkata,False,True,True,silent
2013-04-06,2013-04-27,Chris Welch,Crystal Kelly,45.75279,130.57211,Boli,CN,Shanghai,False,False,True,worried
2011-09-11,2011-10-20,Jim Jackson,Nicole Adams,36.24624,139.07204,Fujioka,JP,Tokyo,False,False,True,panicking
2005-03-31,2005-05-12,Summer Mitchell,Elizabeth Cooper,54.48147,53.47103,Oktyabr‚Äôskiy,RU,Yekaterinburg,True,True,True,unhappy
2001-08-22,2001-08-24,James Lutz,Amber Wright,37.56667,140.11667,Inawashiro,JP,Tokyo,False,True,True,friendly
2006-11-10,2006-12-12,Sarah Smith,Jasmine Rowland,51.4781,57.3552,Kuvandyk,RU,Yekaterinburg,False,False,True,injured
2017-10-22,2017-12-12,Penny Tapia,Michelle Jarvis,12.04161,75.35927,Talipparamba,IN,Kolkata,False,True,True,worried
2018-04-19,2018-05-14,Dennis Frazier,Jeffery Carter,36.75965,137.36215,Namerikawa,JP,Tokyo,False,True,True,paranoid
1987-07-19,1987-08-13,Aaron Contreras,Jennifer George,32.05971,34.8732,Ganei Tikva,IL,Jerusalem,False,True,True,fleeing
1986-10-20,1986-12-07,Daniel Bass,Angel Gonzales,35.815,139.6853,Shimotoda,JP,Tokyo,False,False,False,panicking
1987-01-02,1987-01-24,Kevin Finley,John Hayes,41.27194,123.17306,Liaoyang,CN,Shanghai,False,True,True,unhappy
2012-10-28,2012-12-13,Michael Garrison,Carrie Boone,36.20389,127.08472,Nonsan,KR,Seoul,False,True,True,scared
2003-02-07,2003-03-11,Allison Navarro,James Dawson,-8.43333,114.33333,Muncar,ID,Jakarta,False,True,True,happy
2004-02-07,2004-02-08,April Yates,Kerry Buck,26.32293,91.00632,Barpeta,IN,Kolkata,False,True,True,out-of-control
2006-02-06,2006-02-25,Christine Allen,Alexis Conway PhD,51.82721,107.60627,Ulan-Ude,RU,Irkutsk,False,True,True,scared
1998-11-19,1999-01-12,Tamara Cook,Stephen Mills,25.92127,86.79271,Madhipura,IN,Kolkata,False,True,True,accusatory
1996-12-28,1997-02-01,Daniel Rodriguez,Hunter Lee,33.78333,114.51667,Wacheng,CN,Shanghai,False,False,True,accusatory
2009-07-19,2009-07-26,Michael Guerra,Wesley Horton,22.37066,114.10479,Tsuen Wan,HK,Hong Kong,False,False,True,happy
2006-05-21,2006-06-02,Shelby Scott,Emily Santana,-7.51611,109.05389,Wangon,ID,Jakarta,False,False,True,lonely
2013-07-18,2013-07-25,Joseph Klein,Mr. James Hooper,24.28859,116.11768,Meizhou,CN,Shanghai,False,False,True,confessing
1995-04-21,1995-06-09,David Rowe,Garrett Lawrence,-7.0981,109.3243,Randudongkal,ID,Jakarta,True,True,True,confessing
1986-05-06,1986-05-16,Erin Tanner,Rachel Barnes,17.34769,78.55757,Lal Bahadur Nagar,IN,Kolkata,False,True,True,scared
2007-12-25,2008-01-19,Toni Jensen,Carrie Jones,35.6803,51.0193,Shahre Jadide Andisheh,IR,Tehran,False,False,False,sad
2018-02-27,2018-04-07,Sandra Lopez,Sherry Aguilar,28.88162,120.03308,Guli,CN,Shanghai,False,True,True,insulting
1995-01-20,1995-01-29,Chelsea Pollard,James Dawson,13.44581,101.18445,Phanat Nikhom,TH,Bangkok,True,True,True,sad
1997-05-10,1997-07-02,Monica Robinson,Andre Lamb,32.05971,34.8732,Ganei Tikva,IL,Jerusalem,False,True,True,out-of-control
2011-12-06,2011-12-24,Sylvia Payne,Jennifer Cook,14.14989,121.3152,Calauan,PH,Manila,False,True,True,injured
2003-06-01,2003-07-19,Jamie Morgan,Eric Roberts,10.7375,122.9666,Talisay,PH,Manila,False,True,True,worried
1998-04-17,1998-05-03,Melissa Owens,Denise Park,27.52948,68.75915,Khairpur Mir‚Äôs,PK,Karachi,False,True,True,oblivious
1992-02-21,1992-03-27,Tony Kim,Judith Meyer,18.18158,76.03889,Osmanabad,IN,Kolkata,False,True,True,over-complimenting
1997-04-08,1997-05-02,Jerry Henson,Ashley Carr,6.33444,124.95278,Tupi,PH,Manila,False,True,True,scared
1989-11-24,1989-12-22,Kevin Harris,Lisa Sweeney,36.6009,126.665,Hongseong,KR,Seoul,False,False,True,insulting
1988-11-18,1988-12-16,Anna Carrillo,Diana Torres,34.56861,105.89333,Beidao,CN,Shanghai,False,True,True,out-of-control
2008-03-14,2008-03-15,Ryan Perez,Elizabeth Cook,43.41949,77.0202,Otegen Batyra,KZ,Almaty,False,True,True,sad
2011-09-20,2011-10-01,Allen Walls,Glenn Li,-1.6,103.61667,Jambi City,ID,Jakarta,False,True,True,scared
1985-10-02,1985-10-18,Robin Sanchez,Kristin Werner,12.04161,75.35927,Talipparamba,IN,Kolkata,False,False,True,sad
2010-01-29,2010-03-21,Karina Davis,Jasmine Rowland,15.5439,73.7553,Calangute,IN,Kolkata,True,False,True,oblivious
1994-07-04,1994-07-20,Stephanie Burch,Michael Mercer,23.18,88.58,Aistala,IN,Kolkata,False,True,True,over-complimenting
2003-08-20,2003-10-14,Angela Gibson,Tiffany Morrison,19.21667,73.08333,Dombivli,IN,Kolkata,False,False,True,injured
1995-09-13,1995-10-16,Richard Villanueva,Kelly Barnes,20.88098,75.11937,Parola,IN,Kolkata,False,False,True,unhappy
1994-10-11,1994-12-03,Joyce Tyler,Nathaniel Jackson,15.58552,102.42587,Bua Yai,TH,Bangkok,False,True,False,fleeing
2017-09-04,2017-10-15,Alicia Martin,Kelly Barnes,15.45144,78.14797,Betamcherla,IN,Kolkata,False,True,True,talkative
2020-10-03,2020-10-16,Mr. Brian Mcdaniel,Angel Payne,6.95194,121.96361,Recodo,PH,Manila,False,True,True,paranoid
2008-01-15,2008-03-11,Natasha Rodriguez,Jordan Torres,14.62578,121.12251,Antipolo,PH,Manila,False,True,True,friendly
1985-09-20,1985-10-18,Emily Norman,Lucas Kirk,41.09822,120.74792,Nanpiao,CN,Shanghai,False,True,True,oblivious
2012-03-09,2012-03-17,Daniel Patterson,Sonia Mcdaniel,16.0567,103.65309,Roi Et,TH,Bangkok,False,False,True,tense
1987-08-03,1987-08-31,Sarah Hodges,Erin Ray,35.20889,111.73861,Changzhi,CN,Shanghai,False,True,True,injured
2007-10-24,2007-11-10,Julia Davis,Jamie Martin,4.88441,101.96857,Gua Musang,MY,Kuala Lumpur,False,False,True,talkative
1991-06-25,1991-07-27,Joseph Hill,David Richardson,19.21667,73.08333,Dombivli,IN,Kolkata,False,False,True,accusatory
1987-03-17,1987-03-23,Mary Pennington,Mrs. Amy Munoz PhD,51.4781,57.3552,Kuvandyk,RU,Yekaterinburg,False,True,True,lonely
1999-09-02,1999-10-15,James Small,Mark Valenzuela,56.11281,69.49015,Ishim,RU,Yekaterinburg,False,True,True,complaining
2019-11-11,2020-01-05,Lori Pruitt,Christopher Smith,35.6803,51.0193,Shahre Jadide Andisheh,IR,Tehran,False,True,True,silent
2015-04-10,2015-04-20,Tiffany Velasquez,Tammy Bruce,9.82564,78.25795,Tiruppuvanam,IN,Kolkata,False,False,True,complaining
2014-03-24,2014-04-28,Christine Krause,Garrett Allen,1.6561,103.6032,Kulai,MY,Kuala Lumpur,False,True,True,insulting
2014-10-24,2014-12-21,Thomas Garza,Michael Webb,6.9909,79.883,Hendala,LK,Colombo,False,False,True,confessing
2004-12-20,2005-01-19,Travis Medina,Jane Huff,30.35028,112.19028,Jingzhou,CN,Shanghai,True,False,True,lonely
2005-06-05,2005-07-09,Brittany Nelson,Ronald Wong PhD,18.51957,73.85535,Pune,IN,Kolkata,True,True,True,evasive
1985-09-08,1985-10-28,Sheila French,Shelley Sheppard,35.815,139.6853,Shimotoda,JP,Tokyo,False,False,True,hostile
2012-02-29,2012-03-29,Linda Delacruz,Ray Hall,30.35028,112.19028,Jingzhou,CN,Shanghai,False,True,True,silent
2019-06-06,2019-07-18,Daniel Cunningham,Jeffrey Johnson,34.85,117.33333,Taozhuang,CN,Shanghai,False,True,True,unhappy
2008-11-16,2008-12-23,Paige Avila,Lacey Brown,34.56861,105.89333,Beidao,CN,Shanghai,False,False,True,friendly
1991-12-26,1992-01-23,Dr. Susan Clements MD,Bryce Alvarado,32.65246,51.67462,Isfahan,IR,Tehran,False,False,True,over-complimenting
1988-07-22,1988-08-03,Nicholas Marks,Alison Peterson,46.51872,86.00214,Hoxtolgay,CN,Urumqi,False,True,False,scared
1998-01-28,1998-02-10,Brittany Smith,Shelly Espinoza,65.93381,111.4834,Aykhal,RU,Yakutsk,False,True,True,silent
2014-12-28,2015-02-10,Dr. Alison Bailey MD,Matthew Young,58.7002,59.4839,Kachkanar,RU,Yekaterinburg,False,True,True,silent
2000-08-22,2000-10-06,Justin Logan,Jacob Salazar,35.48199,137.02166,Minokamo,JP,Tokyo,False,True,True,unhappy
1987-03-11,1987-03-20,Taylor Carlson,Angel Payne,13.8196,100.04427,Nakhon Pathom,TH,Bangkok,False,True,False,panicking
2011-08-18,2011-09-18,Toni Pena,Timothy Davis,29.21399,78.95693,Kashipur,IN,Kolkata,False,True,True,over-complimenting
1986-08-03,1986-09-09,Ryan Lewis,Mr. Shannon Sharp,15.5439,73.7553,Calangute,IN,Kolkata,False,False,True,tense
2012-02-14,2012-03-25,Travis Fuller,Cathy Durham,30.21121,74.4818,Malaut,IN,Kolkata,False,False,True,talkative
2017-02-18,2017-03-26,Jermaine Kennedy,Kristen Peterson,29.21399,78.95693,Kashipur,IN,Kolkata,False,False,True,insulting
2006-07-24,2006-08-25,Sean Miller,Laura Oconnor,36.0,139.55722,Okegawa,JP,Tokyo,False,True,True,confessing
1996-08-02,1996-08-24,Dale Ramirez,James Brock,12.1277,78.15794,Dharmapuri,IN,Kolkata,False,True,True,injured
1991-04-26,1991-04-28,Joshua Taylor,Brian Torres,44.35056,142.45778,Nayoro,JP,Tokyo,False,True,True,happy
1999-04-27,1999-05-04,Melissa Ward,Kathleen Munoz,0.51667,101.44167,Pekanbaru,ID,Jakarta,False,False,True,complaining
1991-05-18,1991-07-08,Heather Gross,Michelle Green,36.64852,51.49621,Nowshahr,IR,Tehran,False,True,True,over-complimenting
1999-05-03,1999-06-26,Luke Benson,Rachel Barnes,40.49748,44.7662,Hrazdan,AM,Yerevan,False,True,True,worried
2009-01-14,2009-01-23,Debra May,Natalie Jordan,13.65805,102.56365,Paoy Paet,KH,Phnom Penh,False,True,True,injured
1987-01-23,1987-03-09,Jenna Berger,Dana Parker,32.65246,51.67462,Isfahan,IR,Tehran,True,True,True,talkative
2008-01-24,2008-02-11,William Johnson,Carrie Boone,36.20389,127.08472,Nonsan,KR,Seoul,False,True,True,panicking
2011-04-15,2011-05-19,Kelly Ellis,Denise Johnson,16.0567,103.65309,Roi Et,TH,Bangkok,False,True,True,silent
2012-07-21,2012-09-06,Angela Mathis,Julia Cannon,36.6009,126.665,Hongseong,KR,Seoul,False,True,True,scared
1985-06-08,1985-07-27,Steven Kennedy,Timothy Maldonado,36.20389,127.08472,Nonsan,KR,Seoul,False,True,True,hostile
2006-12-01,2006-12-10,Marie Ortiz DDS,Brian Hickman,14.53767,46.83187,Ataq,YE,Aden,False,True,True,oblivious
1986-03-01,1986-04-13,Sarah Wagner,Erik Gibson,15.79408,104.1451,Yasothon,TH,Bangkok,False,True,True,scared
1990-07-28,1990-08-04,Natalie Johnson,Austin Williams,29.98869,122.20488,Zhoushan,CN,Shanghai,True,True,True,fleeing
2020-11-17,2021-01-01,Jessica Hodges,Alan Ford,20.88098,75.11937,Parola,IN,Kolkata,False,True,True,tense
1999-02-25,1999-04-04,Brandon Fox,Beth Cuevas,46.08333,122.08333,Ulanhot,CN,Shanghai,False,True,True,insulting
2003-01-15,2003-02-21,Leon Clark,Jessica Joseph,24.28859,116.11768,Meizhou,CN,Shanghai,False,True,True,happy
1995-05-14,1995-05-19,Matthew Robles,Richard Green,18.18158,76.03889,Osmanabad,IN,Kolkata,False,True,True,unhappy
1992-03-08,1992-04-23,Sharon Beard,Adam Irwin,5.4709,100.24529,Batu Feringgi,MY,Kuala Lumpur,True,False,True,injured
1990-01-17,1990-02-27,Brittney Nelson,Todd Garcia,12.37169,123.62494,Masbate,PH,Manila,False,False,True,sad
2007-05-30,2007-07-12,Leslie Haynes,Carrie Boone,23.18,88.58,Aistala,IN,Kolkata,False,True,False,lonely
1998-11-06,1998-11-15,Sydney Lewis,Hannah Palmer,37.1759,128.9889,T‚Äôaebaek,KR,Seoul,False,True,True,oblivious
2008-08-31,2008-09-13,Melanie Wilson,Christopher Sandoval,10.20898,123.758,Naga,PH,Manila,False,True,True,insulting
2007-11-06,2007-12-13,Jody Edwards,Michael Riddle,28.71271,77.656,Pilkhua,IN,Kolkata,False,True,False,worried
1992-03-30,1992-04-24,Sarah Olsen,Christina Krause,14.46693,75.92694,Davangere,IN,Kolkata,False,True,True,fleeing
2010-04-30,2010-06-21,Mackenzie Mejia,Jose Hunt,36.21544,65.93249,Sar-e Pul,AF,Kabul,False,False,True,paranoid
1998-04-26,1998-05-16,Melanie Chang,Vanessa Chapman,34.5624,38.28402,Tadmur,SY,Damascus,False,True,True,tense
2008-10-09,2008-11-02,Suzanne Gordon,John Turner,43.41949,77.0202,Otegen Batyra,KZ,Almaty,False,True,True,unhappy
1992-05-04,1992-05-07,Laura Cruz,Misty Young,17.34769,78.55757,Lal Bahadur Nagar,IN,Kolkata,False,True,True,evasive
2021-11-27,2021-12-04,Tonya Anderson,William Knight,34.86472,117.55417,Zaozhuang,CN,Shanghai,False,False,True,sad
1995-03-19,1995-04-27,Angel Taylor,Ashley Carr,27.0174,49.62251,Al Jubayl,SA,Riyadh,False,True,True,happy
1991-05-16,1991-06-10,Kimberly Smith DDS,John Carlson,37.65181,120.33063,Longgang,CN,Shanghai,True,False,True,accusatory
2019-01-19,2019-03-07,Hector Osborne,Courtney Thompson,46.08333,122.08333,Ulanhot,CN,Shanghai,False,False,True,talkative
2001-01-12,2001-01-24,Edward Sampson,Cristina Reynolds,23.1959,86.51499,Kenda,IN,Kolkata,False,False,True,over-complimenting
2004-01-27,2004-02-01,Deanna Estrada,Anita Gray,27.0174,49.62251,Al Jubayl,SA,Riyadh,False,False,True,happy
2005-10-07,2005-11-13,Karen Brown,Sonia Mcdaniel,58.7002,59.4839,Kachkanar,RU,Yekaterinburg,False,True,True,worried
1999-11-18,1999-12-01,Kayla Stafford,Joshua Curtis,-7.73379,113.69785,Besuki,ID,Jakarta,False,False,True,paranoid
1986-05-17,1986-05-25,Anthony Farrell,Daniel Moore,12.95629,78.27539,Robertsonpet,IN,Kolkata,False,True,True,happy
1988-01-20,1988-02-02,Katrina Jackson,Rebecca Snyder MD,26.2649,81.54855,Jais,IN,Kolkata,False,True,True,insulting
1992-05-13,1992-07-09,Hannah Collier,Jeffery Lee,24.81757,84.63445,Rafiganj,IN,Kolkata,False,True,True,scared
1996-06-18,1996-08-03,Sharon Garcia,Cassidy Brown,26.32293,91.00632,Barpeta,IN,Kolkata,True,False,True,fleeing
2008-12-30,2009-01-16,Scott Gomez,Dr. Gregory Gibson,30.21121,74.4818,Malaut,IN,Kolkata,False,True,True,confessing
1993-01-19,1993-02-19,John Lawson,Taylor Robinson,30.21121,74.4818,Malaut,IN,Kolkata,True,False,True,insulting
2009-01-12,2009-03-02,Elizabeth Mcintosh,Denise Kramer,36.75965,137.36215,Namerikawa,JP,Tokyo,False,False,True,accusatory
2009-05-21,2009-06-21,Victoria White,David Zamora,47.46657,84.87144,Zaysan,KZ,Almaty,False,False,True,complaining
2016-11-23,2016-12-24,Daniel Mendez,Austin Summers,36.6009,126.665,Hongseong,KR,Seoul,False,True,True,injured
1994-09-16,1994-09-23,Ricky Banks,Megan Livingston,35.20889,111.73861,Changzhi,CN,Shanghai,False,False,True,scared
2014-08-14,2014-09-20,Mrs. Angela Ross DDS,Garrett Moore,12.04161,75.35927,Talipparamba,IN,Kolkata,False,True,True,complaining
2004-03-14,2004-04-18,Timothy Collier,Jennifer Cook,31.92923,34.86563,Ramla,IL,Jerusalem,False,True,True,injured
2004-08-31,2004-10-16,Casey Shields,Kerry Buck,35.95664,36.7138,Binnish,SY,Damascus,True,False,True,confessing
1988-12-05,1988-12-25,Joshua Carter,Amanda Brown,34.85,117.33333,Taozhuang,CN,Shanghai,False,True,True,fleeing
2016-08-31,2016-10-12,Laurie Brooks,Holly Chapman,58.7002,59.4839,Kachkanar,RU,Yekaterinburg,False,False,False,unhappy
1990-01-10,1990-02-11,Robert Horn,Leslie Curtis,31.39547,34.75699,Rahat,IL,Jerusalem,False,True,True,tense
2019-10-11,2019-10-22,Mr. Kyle Wise MD,Eric French,25.80565,68.49143,Bhit Shah,PK,Karachi,True,True,True,happy
2000-07-07,2000-07-31,Robert Love,Adam Smith,51.4781,57.3552,Kuvandyk,RU,Yekaterinburg,False,True,True,injured
2015-04-16,2015-05-16,Tony Campbell,William Joseph,27.85,112.9,Xiangtan,CN,Shanghai,True,True,True,oblivious
2010-08-05,2010-09-07,Stephanie Harris,Ashley Davis,26.76628,83.36889,Gorakhpur,IN,Kolkata,False,True,True,oblivious
2018-04-06,2018-05-23,Mark Jordan,Jeffrey Johnson,27.52948,68.75915,Khairpur Mir‚Äôs,PK,Karachi,False,False,True,hostile
1988-10-16,1988-11-20,Brandon Hernandez,Stephen Mills,30.81383,75.16878,Moga,IN,Kolkata,False,True,True,paranoid
2000-11-10,2000-12-17,Jeffrey Mitchell,Valerie Griffin,33.3213,130.94098,Hita,JP,Tokyo,False,False,True,oblivious
1986-01-18,1986-01-26,John Palmer,Amy Bray,26.44931,91.61356,Rangia,IN,Kolkata,True,False,True,confessing
2008-12-08,2009-01-11,Brian Murphy,Nicole Scott,-7.57897,112.23109,Diwek,ID,Jakarta,False,True,True,hostile
1998-01-29,1998-02-19,Robin Sanders,Richard Harris,33.86419,48.26258,Aleshtar,IR,Tehran,False,False,True,insulting
1995-04-06,1995-04-13,Christina Newman,Hannah Lindsey,16.68911,98.50893,Myawadi,MM,Yangon,False,True,False,silent
2015-11-18,2016-01-01,Stephanie Brady,Michelle Green,21.53889,71.57737,Gariadhar,IN,Kolkata,False,False,True,fleeing
2005-04-01,2005-05-26,Kelsey Compton,Tanya Conley,32.55531,76.12647,Chamba,IN,Kolkata,False,False,True,sad
2004-09-24,2004-11-12,Sharon Davis,Patricia Hall,13.44581,101.18445,Phanat Nikhom,TH,Bangkok,False,False,True,complaining
2015-10-02,2015-10-03,Jennifer Choi,Beth Cuevas,34.61667,135.6,Yao,JP,Tokyo,False,True,False,tense
2009-06-09,2009-06-20,Jessica Anderson,Garrett Martinez,12.04161,75.35927,Talipparamba,IN,Kolkata,False,False,True,scared
2014-11-07,2015-01-05,Deborah Atkins,Susan Thomas,35.48199,137.02166,Minokamo,JP,Tokyo,False,True,True,complaining
2011-07-17,2011-08-06,Amanda Fleming,Emily Mccoy,27.9247,78.40102,Chharra,IN,Kolkata,False,False,True,injured
2004-09-25,2004-10-04,Meagan Wilson,Linda Finley,38.40917,112.73333,Xinzhou,CN,Shanghai,False,True,True,evasive
2009-09-12,2009-09-21,Sara Chambers,Mark Williams,25.80565,68.49143,Bhit Shah,PK,Karachi,False,False,True,worried
2021-11-13,2021-12-07,Lindsay Hansen,Ronnie Anthony,-3.5403,118.9707,Majene,ID,Makassar,False,True,False,silent
1989-12-16,1990-01-03,Nicholas Thompson,Shawn Huang,32.50611,120.14278,Jiangyan,CN,Shanghai,False,False,True,silent
2010-05-04,2010-06-08,Kayla White,Jessica Duran,4.02219,101.02083,Teluk Intan,MY,Kuala Lumpur,False,True,True,tense
2009-05-17,2009-05-30,Devin Dean,Ronnie Anthony,32.50611,120.14278,Jiangyan,CN,Shanghai,False,False,True,injured
2013-06-22,2013-06-25,Amanda James,Holly Chapman,31.78336,35.23388,East Jerusalem,PS,Hebron,False,False,True,confessing
1988-08-28,1988-09-06,Melanie Moore,Jason Mccarthy,44.35056,142.45778,Nayoro,JP,Tokyo,False,True,True,over-complimenting
2006-04-01,2006-04-24,Karen Brown,Kathy Meadows,31.82539,72.54064,Sillanwali,PK,Karachi,False,True,True,complaining
1987-03-28,1987-04-01,Thomas Mathews,Gabriel Jones,28.92694,78.23456,Bachhraon,IN,Kolkata,False,True,True,sad
2008-01-20,2008-03-13,Matthew Edwards,Andrew Miranda,35.8,137.23333,Gero,JP,Tokyo,False,True,True,paranoid
2007-03-03,2007-03-15,Lisa Robinson,Justin Edwards,26.2649,81.54855,Jais,IN,Kolkata,False,True,True,complaining
1992-11-05,1992-11-16,Hailey Patterson,William Zuniga,13.8196,100.04427,Nakhon Pathom,TH,Bangkok,False,True,True,confessing
2005-03-30,2005-05-12,Joanna Jones,Megan West,36.53333,136.61667,Nonoichi,JP,Tokyo,False,False,True,talkative
2002-03-29,2002-05-22,Michael Johnston,Jennifer George,27.9247,78.40102,Chharra,IN,Kolkata,False,True,True,scared
2020-05-14,2020-06-16,Victoria Flowers,Jordan Torres,2.2139,102.3278,Kampung Ayer Molek,MY,Kuala Lumpur,False,False,False,paranoid
1992-06-17,1992-07-03,George Nielsen,Elizabeth Cooper,23.02677,113.13148,Foshan,CN,Shanghai,False,False,True,complaining
2006-05-10,2006-06-30,Megan Ball MD,Edward Anderson,35.82756,137.95378,Ina,JP,Tokyo,False,False,True,happy
2010-11-20,2010-11-23,Sara Ross,Misty Young,44.85278,65.50917,Kyzylorda,KZ,Qyzylorda,True,True,True,silent
2003-04-12,2003-04-16,Mr. Anthony Miller MD,Jimmy Patel,-6.48167,106.85417,Cibinong,ID,Jakarta,True,False,True,lonely
1997-12-15,1998-01-24,Eric Davis,Matthew Brown,41.09246,45.36561,Qazax,AZ,Baku,False,True,True,friendly
2017-02-17,2017-03-15,Derrick Phillips,David Harrington,27.85,112.9,Xiangtan,CN,Shanghai,False,True,True,lonely
2013-11-22,2013-12-26,Timothy Mason,Brooke Crawford,54.48147,53.47103,Oktyabr‚Äôskiy,RU,Yekaterinburg,False,True,True,fleeing
2014-11-24,2014-11-30,Rachel Rowland,Maurice Mccarthy,13.8196,100.04427,Nakhon Pathom,TH,Bangkok,False,True,True,oblivious
2008-12-13,2008-12-13,Charles Patterson,Allen Baker,34.4833,136.84186,Toba,JP,Tokyo,False,True,True,talkative
1986-01-16,1986-02-09,Amanda Owens,Joseph Nguyen,22.4711,88.1453,Pujali,IN,Kolkata,False,True,True,paranoid
2013-02-07,2013-02-26,Nicholas Robertson,Marie Hill,26.9423,68.11759,Tharu Shah,PK,Karachi,False,True,True,hostile
1999-06-08,1999-07-08,Joshua Greer,Ronald Friedman,37.30553,120.82747,Zhuangyuan,CN,Shanghai,False,True,True,complaining
1995-07-06,1995-07-21,Michael Rowland,David Wagner,31.64615,120.74221,Changshu City,CN,Shanghai,False,True,True,insulting
2001-05-30,2001-06-12,Kyle Sutton,Mrs. Kristin Lopez MD,10.10649,76.35484,Alwaye,IN,Kolkata,True,True,True,fleeing
1986-08-25,1986-09-15,Steve Taylor,Angelica Chan,29.22254,79.5286,Haldwani,IN,Kolkata,False,True,True,accusatory
1987-03-22,1987-04-01,Rachel Moody,Stephanie Taylor,27.92333,118.53333,Pucheng,CN,Shanghai,True,True,True,scared
2001-05-03,2001-06-25,Cheryl Welch,Lindsey Hoover,23.73333,114.68333,Heyuan,CN,Shanghai,False,False,True,lonely
2014-10-30,2014-12-05,Brandon Valentine,Daniel Moore,6.25947,102.05461,Tak Bai,TH,Bangkok,False,True,True,panicking
2013-04-07,2013-04-23,Stephen Curry,Shelley Sheppard,2.2139,102.3278,Kampung Ayer Molek,MY,Kuala Lumpur,False,True,True,talkative
2007-06-06,2007-07-06,Meredith Cole,Jeffrey Freeman,11.50526,77.23826,Sathyamangalam,IN,Kolkata,False,True,True,unhappy
1987-12-07,1987-12-20,Christopher Johns,Beth Cuevas,31.92923,34.86563,Ramla,IL,Jerusalem,False,True,True,insulting
1989-09-30,1989-11-02,Sylvia Rodgers,Katelyn Cook,12.97389,123.99333,Sorsogon,PH,Manila,False,True,True,unhappy
2013-07-30,2013-08-15,Brian Brown,Kerri Clay,55.75556,60.70278,Ozersk,RU,Yekaterinburg,False,True,True,unhappy
2017-05-15,2017-05-26,Angela Patterson,Tracy Young,4.88441,101.96857,Gua Musang,MY,Kuala Lumpur,False,False,True,insulting
1990-08-02,1990-09-13,James Gilbert,Brian Torres,25.75728,75.37991,Deoli,IN,Kolkata,False,False,True,over-complimenting
1990-07-07,1990-07-24,Melissa Carter,Angela Strickland,-7.73379,113.69785,Besuki,ID,Jakarta,False,True,True,unhappy
1998-10-14,1998-10-23,Dominique Miller,Gregory Moore,1.6561,103.6032,Kulai,MY,Kuala Lumpur,False,True,True,sad
1989-07-11,1989-08-08,Brian Brown,Kayla Klein,27.0174,49.62251,Al Jubayl,SA,Riyadh,False,True,True,talkative
2016-06-02,2016-06-13,Karen Tanner,Lucas Kirk,-8.99167,125.21972,Maliana,TL,Dili,False,True,True,worried
2005-01-22,2005-02-06,Cody Acosta,Adam Irwin,8.56697,123.33471,Dipolog,PH,Manila,False,True,True,panicking
1998-02-09,1998-03-30,Linda Richards,Mr. Frederick Bryant,36.75965,137.36215,Namerikawa,JP,Tokyo,False,True,True,talkative
2004-04-08,2004-05-02,Peter Baker,Joseph Moore DVM,45.35,126.28333,Shuangcheng,CN,Shanghai,False,True,True,talkative
1996-12-09,1997-01-09,Kristen White,Kayla Klein,34.08565,74.80555,Srinagar,IN,Kolkata,True,True,True,worried
2018-02-15,2018-03-18,Christopher Taylor,Gabriel Jones,31.71667,73.38333,Sangla Hill,PK,Karachi,False,True,True,complaining
1990-01-08,1990-02-16,Eric Moses,Mary Scott,28.98002,77.70636,Meerut,IN,Kolkata,False,True,True,silent
1985-09-11,1985-09-27,Kathleen Boyd,Kevin Martin,13.44581,101.18445,Phanat Nikhom,TH,Bangkok,False,True,True,lonely
2013-03-26,2013-03-31,Ashley Campbell,James Burnett,12.25282,79.41727,Gingee,IN,Kolkata,False,True,True,hostile
2005-08-05,2005-08-26,Gabriel Davis,Jared Reid,55.75556,60.70278,Ozersk,RU,Yekaterinburg,False,False,False,out-of-control
2022-04-22,2022-05-12,Carlos Miller,Christopher Bell,33.4425,129.96972,Karatsu,JP,Tokyo,True,True,True,tense
2012-10-18,2012-12-12,Ronald Hubbard,Christopher Sandoval,34.81667,137.4,Toyokawa,JP,Tokyo,False,True,True,scared
1992-03-28,1992-05-25,Stacy Gilbert,Randy Simmons,23.1959,86.51499,Kenda,IN,Kolkata,False,True,True,panicking
1988-11-21,1988-12-22,Erika Hardy,Bryce Alvarado,22.88783,84.13864,Jashpurnagar,IN,Kolkata,False,True,True,over-complimenting
2000-10-22,2000-12-10,Kelly Porter,Tammy Bruce,53.14657,140.72287,Nikolayevsk-on-Amure,RU,Vladivostok,False,False,True,injured
2021-01-09,2021-01-22,Taylor Norton,Karen Nguyen,25.13915,73.06784,Sheoganj,IN,Kolkata,False,True,True,paranoid
1987-05-26,1987-07-07,Brian Carlson,Laura Santana,9.3337,122.8637,Santa Catalina,PH,Manila,False,True,True,lonely
2012-04-27,2012-05-29,Debra Williams,Garrett Moore,47.83333,59.6,Shalqar,KZ,Aqtobe,False,False,True,evasive
2014-12-22,2015-01-08,Jason Bradley,Denise Davis,19.30157,72.85107,Bhayandar,IN,Kolkata,True,True,True,silent
2013-10-11,2013-11-09,Kathleen Woods,Nathaniel Jackson,34.86472,117.55417,Zaozhuang,CN,Shanghai,False,False,True,silent
2011-08-20,2011-09-25,Laura Grimes,Ashley Carr,24.28859,116.11768,Meizhou,CN,Shanghai,False,True,True,insulting
1988-03-28,1988-05-14,Michael Sandoval,Bryce Alvarado,23.5654,119.58627,Magong,TW,Taipei,True,True,True,injured
2006-07-26,2006-09-17,James Wright,James Brock,27.52948,68.75915,Khairpur Mir‚Äôs,PK,Karachi,False,True,True,out-of-control
2014-07-23,2014-09-08,John Strickland,Patricia Williams,-1.6,103.61667,Jambi City,ID,Jakarta,False,True,True,over-complimenting
2002-03-27,2002-05-05,Regina Martin,Isabel Webb,36.20389,127.08472,Nonsan,KR,Seoul,False,True,True,friendly
1992-12-12,1992-12-27,Lawrence Sawyer,Stephanie Brooks,26.32293,91.00632,Barpeta,IN,Kolkata,False,True,False,sad
